[{"id":"cmoa7mb1g0339b2g2p14k36b4","entreprise":"2M","contact":null,"apporteur":"Yoann","ville":"MONTPELLIER","departement":34,"adresse":"281 Avenue DU MARCHE GARE","codePostal":34070,"lat":43.585983,"lng":3.880018,"nbVelos":16,"modeLivraison":"atelier","telephone":623039399,"email":"familymarket34@gmail.com","docsComplets":false,"velosLivres":0,"velosPlanifies":0},{"id":"cmoa7masg01f3b2g2eipy6ihi","entreprise":"3615 FUTURE","contact":null,"apporteur":"Antho","ville":"PARIS 17","departement":75,"adresse":"58 Avenue de Wagram","codePostal":75017,"lat":48.879235,"lng":2.299247,"nbVelos":2,"modeLivraison":"atelier","telephone":681245865,"email":"3615future.io","docsComplets":false,"velosLivres":0,"velosPlanifies":0},{"id":"cmoa7mauz01o0b2g2xtf4h4rz","entreprise":"5V","contact":null,"apporteur":"John","ville":"FONTENAY SOUS BOIS","departement":94,"adresse":"38 Rue du Bois Galon","codePostal":94120,"lat":48.85935,"lng":2.493737,"nbVelos":14,"modeLivraison":"atelier","telephone":685325006,"email":"berenice-ta@avconceptproducts.com","docsComplets":false,"velosLivres":0,"velosPlanifies":0},{"id":"cmoa7maub01jrb2g2b2m9ttvm","entreprise":"A C O F I  ASSIST.COMPTABLE & FIDUCIAIRE","contact":"Alain-Philippe Etlin","apporteur":"John","ville":"CRETEIL","departement":94,"adresse":"33 Avenue PIERRE BROSSOLETTE","codePostal":94000,"lat":48.791468,"lng":2.462421,"nbVelos":9,"modeLivraison":"atelier","telephone":612439615,"email":"ap.etlin@acofi.fr","docsComplets":false,"velosLivres":0,"velosPlanifies":0},{"id":"cmoa7mb0902ptb2g2ln7hb2un","entreprise":"A.B.C.EVOL-PRO","contact":"Michel NADIN","apporteur":"Thierry Bismuth","ville":"SOUILLAC","departement":46,"adresse":"3 Avenue LEON GAMBETTA","codePostal":46200,"lat":44.894892,"lng":1.476428,"nbVelos":1,"modeLivraison":"atelier","telephone":684176997,"email":"a.b.c.evol-pro@orange.fr","docsComplets":false,"velosLivres":0,"velosPlanifies":0},{"id":"cmoa7mawh01wyb2g2t0tedjtu","entreprise":"ABC EDOUARD PEINTURE","contact":null,"apporteur":"Paul","ville":"PARIS 10","departement":75,"adresse":"12 Impasse BOUTRON","codePostal":75010,"lat":48.877129,"lng":2.36218,"nbVelos":22,"modeLivraison":"atelier","telephone":660460650,"email":"contact.edouardpeinture@gmail.com","docsComplets":true,"velosLivres":0,"velosPlanifies":22},{"id":"cmoa7mauc01k1b2g28h8vw1bk","entreprise":"ACOFI LOUVRE","contact":"Alain-Philippe Etlin","apporteur":"John","ville":"PARIS 01","departement":75,"adresse":"15 Rue DU LOUVRE","codePostal":75001,"lat":48.863501,"lng":2.341996,"nbVelos":9,"modeLivraison":"atelier","telephone":612439615,"email":"ap.etlin@acofi.fr","docsComplets":false,"velosLivres":0,"velosPlanifies":0},{"id":"cmoa7mauh01lgb2g2y0k1odhk","entreprise":"ACOFI MARNE LA VALLEE","contact":"Alain-Philippe Etlin","apporteur":"John","ville":"CRETEIL","departement":94,"adresse":"33 Avenue PIERRE BROSSOLETTE","codePostal":94000,"lat":48.791468,"lng":2.462421,"nbVelos":9,"modeLivraison":"atelier","telephone":612439615,"email":"ap.etlin@acofi.fr","docsComplets":false,"velosLivres":0,"velosPlanifies":0},{"id":"cmoa7mb0502pnb2g2xjmpeavn","entreprise":"AGATHE AUDITION","contact":null,"apporteur":"Thierry Bismuth","ville":"ST MEDARD EN JALLES","departement":33,"adresse":"73 Avenue DE LA BOETIE","codePostal":33160,"lat":44.900024,"lng":-0.704652,"nbVelos":2,"modeLivraison":"atelier","telephone":633350695,"email":"adromard@agatheaudition.fr","docsComplets":false,"velosLivres":0,"velosPlanifies":0},{"id":"cmoa7mb4n03xzb2g23autcngy","entreprise":"AGENCE MARCEAU IMMOBILIER","contact":null,"apporteur":"Yoann","ville":"COURBEVOIE","departement":92,"adresse":"54 Avenue MARCEAU","codePostal":92400,"lat":48.900525,"lng":2.244975,"nbVelos":1,"modeLivraison":"atelier","telephone":674411919,"email":"contact@agencemarceau.com","docsComplets":false,"velosLivres":0,"velosPlanifies":1},{"id":"cmoa7maso01ffb2g2alziheot","entreprise":"ALIBERT STEPHANIE","contact":null,"apporteur":"Antho","ville":"BARSAC","departement":33,"adresse":"2  RASPIDE","codePostal":33720,"lat":44.595364,"lng":-0.317883,"nbVelos":1,"modeLivraison":"atelier","telephone":665014796,"email":"sunsteph40@hotmail.fr","docsComplets":false,"velosLivres":0,"velosPlanifies":0},{"id":"cmoa7mawp01yvb2g22kcfwzbe","entreprise":"ALISEI HOLDING","contact":"Patrizia Piromali","apporteur":"Paul","ville":"PARIS 01","departement":75,"adresse":"142 Rue DE RIVOLI","codePostal":75001,"lat":48.860363,"lng":2.342882,"nbVelos":1,"modeLivraison":"atelier","telephone":602000972,"email":"segretariatiovines@gmail.com","docsComplets":true,"velosLivres":0,"velosPlanifies":0},{"id":"cmoa7mam10015b2g2ekl69gjb","entreprise":"ALL FRET SERVICE","contact":null,"apporteur":"Abdel","ville":"WITTELSHEIM","departement":68,"adresse":"1 Rue D'ITALIE","codePostal":68310,"lat":47.774145,"lng":7.225987,"nbVelos":1,"modeLivraison":"atelier","telephone":764720165,"email":"contact.allfretservice@gmail.com","docsComplets":false,"velosLivres":0,"velosPlanifies":0},{"id":"cmoa7mb4l03xvb2g24mgk21xz","entreprise":"ALYSSAR","contact":null,"apporteur":"Yoann","ville":"COURBEVOIE","departement":92,"adresse":"49 Avenue MARCEAU","codePostal":92400,"lat":48.90041,"lng":2.244749,"nbVelos":1,"modeLivraison":"atelier","telephone":630886500,"email":"christopher.pro@hotmail.fr","docsComplets":false,"velosLivres":0,"velosPlanifies":1},{"id":"cmoa7mavn01rlb2g2a7gzouaz","entreprise":"AMIGO PIZZA","contact":null,"apporteur":"John","ville":"FONTVIEILLE","departement":13,"adresse":"121 Avenue FREDERIC MISTRAL","codePostal":13990,"lat":43.72737,"lng":4.709009,"nbVelos":3,"modeLivraison":"atelier","telephone":614053804,"email":"bastienp13@hotmail.fr","docsComplets":false,"velosLivres":0,"velosPlanifies":0},{"id":"cmoa7mb0s02wsb2g26uvc9u5f","entreprise":"ANADOLU DISTRIBUTION","contact":null,"apporteur":"Yoann","ville":"COLOMBES","departement":92,"adresse":"233 Rue DU PDT SALVADOR ALLENDE","codePostal":92700,"lat":48.920435,"lng":2.228872,"nbVelos":30,"modeLivraison":"atelier","telephone":611141325,"email":"Anadolu.Distribution@yahoo.fr","docsComplets":true,"velosLivres":0,"velosPlanifies":14},{"id":"cmoa7mb3i03q5b2g2y7n87wdj","entreprise":"ANDALUS","contact":null,"apporteur":"Yoann","ville":"MONTPELLIER","departement":34,"adresse":"37 Cours GAMBETTA","codePostal":34000,"lat":43.607917,"lng":3.868932,"nbVelos":5,"modeLivraison":"atelier","telephone":632544279,"email":"gmostmse@gmail.com","docsComplets":false,"velosLivres":0,"velosPlanifies":0},{"id":"cmoa7maqt015zb2g26t6mxumi","entreprise":"ANIMALERIE MONTGERON","contact":null,"apporteur":"Alain","ville":"MONTGERON","departement":91,"adresse":"79 Avenue JEAN JAURES","codePostal":91230,"lat":48.715627,"lng":2.447176,"nbVelos":2,"modeLivraison":"atelier","telephone":782349588,"email":"animaleriemontgeron@gmail.com","docsComplets":true,"velosLivres":0,"velosPlanifies":0},{"id":"cmoa7mara0172b2g26of2xj9w","entreprise":"ANISSA DIS","contact":null,"apporteur":"Antho","ville":"COMPIEGNE","departement":60,"adresse":"Rue SAINT-CORNEILLE","codePostal":60200,"lat":49.417055,"lng":2.823832,"nbVelos":1,"modeLivraison":"atelier","telephone":609777443,"email":"ouetobrahim@gmail.com","docsComplets":false,"velosLivres":0,"velosPlanifies":0},{"id":"cmoa7matr01hbb2g2daj8mqyo","entreprise":"ANNA INVEST","contact":null,"apporteur":"Antho","ville":"VILLEMOMBLE","departement":93,"adresse":"7 Rue LOUIS SOYER","codePostal":93250,"lat":48.878845,"lng":2.507155,"nbVelos":1,"modeLivraison":"atelier","telephone":650960917,"email":"nabil.dp@gmail.com","docsComplets":false,"velosLivres":0,"velosPlanifies":0},{"id":"cmoa7mauk01lqb2g2pqjmmywj","entreprise":"AP ETLIN AUDIT","contact":"Alain-Philippe Etlin","apporteur":"John","ville":"CRETEIL","departement":94,"adresse":"33 Avenue PIERRE BROSSOLETTE","codePostal":94000,"lat":48.791468,"lng":2.462421,"nbVelos":9,"modeLivraison":"atelier","telephone":612439615,"email":"ap.etlin@acofi.fr","docsComplets":false,"velosLivres":0,"velosPlanifies":0},{"id":"cmoa7mawz0215b2g2wp0csjaw","entreprise":"ASS OHALEI YAACOV LE SILENCE DES JUSTES","contact":null,"apporteur":"sacha","ville":"PARIS 19","departement":75,"adresse":"95 Rue PETIT","codePostal":75019,"lat":48.886383,"lng":2.392437,"nbVelos":118,"modeLivraison":"atelier","telephone":651225155,"email":"stephane.perez@lesilencedesjustes.fr","docsComplets":false,"velosLivres":0,"velosPlanifies":0},{"id":"cmoa7mb0302pjb2g2ftwz98eb","entreprise":"ASSISTANCE CONSEIL RH","contact":"Eric Sarrazin","apporteur":"Thierry Bismuth","ville":"LAVAUR","departement":81,"adresse":"15 Rue DES BUIS","codePostal":81500,"lat":43.699881,"lng":1.806512,"nbVelos":1,"modeLivraison":"atelier","telephone":685306518,"email":"sarrazin.eric@gmail.com","docsComplets":false,"velosLivres":0,"velosPlanifies":0},{"id":"cmoa7map700ygb2g2cauwm6zd","entreprise":"ASSOCIATION CULTURELLE ET CULTUELLE ISRAELITE DE RENNES","contact":null,"apporteur":"Alain","ville":"RENNES","departement":35,"adresse":"5 Allée DU MONT DOL","codePostal":35700,"lat":48.135648,"lng":-1.653756,"nbVelos":12,"modeLivraison":"atelier","telephone":651032026,"email":"serge.sakoun@gmail.com","docsComplets":true,"velosLivres":0,"velosPlanifies":0},{"id":"cmoa7mart01c6b2g2h62mk2by","entreprise":"ASSOCIATION KEREN RACHBI - RABBI CHIMONE BAR YOHAI","contact":null,"apporteur":"Antho","ville":"PARIS 18","departement":75,"adresse":"2 Rue TRISTAN TZARA","codePostal":75018,"lat":48.894543,"lng":2.365982,"nbVelos":10,"modeLivraison":"atelier","telephone":778283221,"email":"colis@keren-rachbi.com","docsComplets":false,"velosLivres":0,"velosPlanifies":0},{"id":"cmoa7mavw01spb2g22oepjg3a","entreprise":"ASSOCIATION MEDICO-DENTAIRE VILLENEUVE LE ROI","contact":"Dany ELBAZ","apporteur":"Jordan","ville":"VILLENEUVE LE ROI","departement":94,"adresse":"50 Rue DU GENERAL DE GAULLE","codePostal":94290,"lat":48.735206,"lng":2.421752,"nbVelos":22,"modeLivraison":"atelier","telephone":682947572,"email":"Amd.villeneuve@gmail.com","docsComplets":true,"velosLivres":0,"velosPlanifies":0},{"id":"cmoa7mb0902pvb2g2xx1y4k50","entreprise":"ASSOCIATION MOSAIQUE","contact":null,"apporteur":"Thierry Bismuth","ville":"TOUL","departement":54,"adresse":"Place HENRI MILLER","codePostal":54200,"lat":48.689486,"lng":5.897626,"nbVelos":1,"modeLivraison":"atelier","telephone":749418821,"email":"mosaique.apichard@gmail.com","docsComplets":false,"velosLivres":0,"velosPlanifies":0},{"id":"cmoa7may702i8b2g2ot1z5u7o","entreprise":"ASSOCIATION SAINT JOSEPH DE PREVILLE","contact":null,"apporteur":"Thierry Bismuth","ville":"RENNES","departement":35,"adresse":"22 Boulevard MARBEUF","codePostal":35000,"lat":48.112877,"lng":-1.701394,"nbVelos":16,"modeLivraison":"atelier","telephone":299142100,"email":"herve.lefresne@asjp.fr","docsComplets":false,"velosLivres":0,"velosPlanifies":0},{"id":"cmoa7maq0012ib2g26dk1qol2","entreprise":"AT FLEX","contact":"Laura GAUTIER","apporteur":"Alain","ville":"BOUTIGNY","departement":77,"adresse":"1 Chemin DES CHAMPS FORTS","codePostal":77470,"lat":48.91771,"lng":2.914555,"nbVelos":7,"modeLivraison":"atelier","telephone":769969342,"email":"comptabilite@at-groupe.fr","docsComplets":true,"velosLivres":0,"velosPlanifies":0},{"id":"cmoa7mapz012ab2g2fwrzbikw","entreprise":"AT MAT TP","contact":null,"apporteur":"Alain","ville":"BOUTIGNY","departement":77,"adresse":"1 Chemin DES CHAMPS FORTS","codePostal":77470,"lat":48.91771,"lng":2.914555,"nbVelos":7,"modeLivraison":"atelier","telephone":769969342,"email":"","docsComplets":true,"velosLivres":0,"velosPlanifies":0},{"id":"cmoa7mayb02j5b2g2uvs4h8mm","entreprise":"ATIS","contact":null,"apporteur":"Thierry Bismuth","ville":"GUIPAVAS","departement":29,"adresse":"110 Rue CHARLES NUNGESSER","codePostal":29490,"lat":48.441415,"lng":-4.41484,"nbVelos":14,"modeLivraison":"atelier","telephone":298463219,"email":"konnert@atis.bzh","docsComplets":false,"velosLivres":0,"velosPlanifies":0},{"id":"cmoa7mawu0203b2g2ek61ob1c","entreprise":"ATLAS NEGOCE SARL","contact":null,"apporteur":"Ramzi","ville":"SARCELLES","departement":95,"adresse":"4 Rue D’ABLEVAL","codePostal":95200,"lat":48.997533,"lng":2.393295,"nbVelos":55,"modeLivraison":"atelier","telephone":615669939,"email":"direction.n@atlasnegoce.com","docsComplets":false,"velosLivres":0,"velosPlanifies":0},{"id":"cmoa7maq1012qb2g2f02dwedx","entreprise":"ATOULOK TP","contact":"Laura GAUTIER","apporteur":"Alain","ville":"BOUTIGNY","departement":77,"adresse":"1 Chemin DES CHAMPS FORTS","codePostal":77470,"lat":48.91771,"lng":2.914555,"nbVelos":7,"modeLivraison":"atelier","telephone":769969342,"email":"comptabilite@atoulok-tp.fr","docsComplets":true,"velosLivres":0,"velosPlanifies":0},{"id":"cmoa7mb1y037pb2g2aimmk90x","entreprise":"AVIPRO","contact":null,"apporteur":"Yoann","ville":"AVIGNON","departement":84,"adresse":"4 Avenue DE LA GLORIETTE","codePostal":84000,"lat":43.937406,"lng":4.846016,"nbVelos":9,"modeLivraison":"atelier","telephone":623039399,"email":"sasavipro84@gmail.com","docsComplets":false,"velosLivres":0,"velosPlanifies":0},{"id":"cmoa7mazp02oxb2g241afeg6i","entreprise":"AWAPLAISIR","contact":null,"apporteur":"Thierry Bismuth","ville":"MANTES LA VILLE","departement":78,"adresse":"2 Allée DE CHANTEREINE","codePostal":78711,"lat":48.978527,"lng":1.723536,"nbVelos":1,"modeLivraison":"atelier","telephone":671401904,"email":"ap.awaplaisir@gmail.com","docsComplets":false,"velosLivres":0,"velosPlanifies":0},{"id":"cmoa7mayp02lzb2g2qdjci20l","entreprise":"BAGE","contact":"ROUY Emmanuel","apporteur":"Thierry Bismuth","ville":"BIGUGLIA","departement":20,"adresse":"CASATORRA","codePostal":20620,"lat":42.612385,"lng":9.45385,"nbVelos":6,"modeLivraison":"atelier","telephone":625052742,"email":"manu.rouy39@gmail.com","docsComplets":true,"velosLivres":0,"velosPlanifies":0},{"id":"cmoa7maym02llb2g24d2a9jb3","entreprise":"BALDONI","contact":"Stella BALDONI","apporteur":"Thierry Bismuth","ville":"VIVONNE","departement":86,"adresse":"12  GRAND RUE","codePostal":86370,"lat":46.425865,"lng":0.260787,"nbVelos":6,"modeLivraison":"atelier","telephone":675050374,"email":"sbaldoni@hotmail.fr","docsComplets":false,"velosLivres":0,"velosPlanifies":0},{"id":"cmoa7mau101inb2g2cgvzpfn9","entreprise":"BARBER SHOP 92","contact":"Drisse FARHANE","apporteur":"Dylan","ville":"COURBEVOIE","departement":92,"adresse":"112 Avenue MARCEAU","codePostal":92400,"lat":48.902156,"lng":2.243309,"nbVelos":4,"modeLivraison":"atelier","telephone":652878203,"email":"drissefarhane@yahoo.fr","docsComplets":false,"velosLivres":0,"velosPlanifies":4},{"id":"cmoa7mats01hdb2g2wz634ivk","entreprise":"BAREC ADEL","contact":null,"apporteur":"Antho","ville":"PARIS 17","departement":75,"adresse":"70 Rue Nollet","codePostal":75017,"lat":48.887203,"lng":2.321084,"nbVelos":1,"modeLivraison":"atelier","telephone":659345050,"email":"adel.barec34@gmail.com","docsComplets":false,"velosLivres":0,"velosPlanifies":0},{"id":"cmoa7masv01frb2g27co6q56o","entreprise":"BATISOLE CONSTRUCTION","contact":null,"apporteur":"Antho","ville":"AULNAY SOUS BOIS","departement":93,"adresse":"7 Place DE L'HOTEL DE VILLE","codePostal":93600,"lat":48.934515,"lng":2.499755,"nbVelos":1,"modeLivraison":"atelier","telephone":637821059,"email":"egbatiment60@gmail.com","docsComplets":false,"velosLivres":0,"velosPlanifies":1},{"id":"cmoa7mar3016ob2g24ev6wx1t","entreprise":"BEAUFRERE JEREMY","contact":null,"apporteur":"Alain","ville":"ETEL","departement":56,"adresse":"3 Rue DU MOULIN","codePostal":56410,"lat":47.660151,"lng":-3.187509,"nbVelos":1,"modeLivraison":"atelier","telephone":651597085,"email":"beaufrere.jerem@gmail.com","docsComplets":true,"velosLivres":0,"velosPlanifies":0},{"id":"cmoa7mar5016sb2g2x187mbd2","entreprise":"BEAUFRERE MICHAEL","contact":null,"apporteur":"Alain","ville":"CONFLANS STE HONORINE","departement":78,"adresse":"1 Résidence DU PLEIN AIR","codePostal":78700,"lat":49.001159,"lng":2.109889,"nbVelos":1,"modeLivraison":"atelier","telephone":641903916,"email":"square.ganouchette@gmail.com","docsComplets":false,"velosLivres":0,"velosPlanifies":0},{"id":"cmoa7mas501e9b2g2d8jaog1w","entreprise":"BELGRAND COIFFEUR","contact":null,"apporteur":"Antho","ville":"PARIS 20","departement":75,"adresse":"74 Rue BELGRAND","codePostal":75020,"lat":48.864471,"lng":2.407044,"nbVelos":4,"modeLivraison":"atelier","telephone":612712887,"email":"oumokhtar_wafae@hotmail.com","docsComplets":false,"velosLivres":0,"velosPlanifies":0},{"id":"cmoa7math01gtb2g2pndsn9ue","entreprise":"BELGUANA LATIFA","contact":null,"apporteur":"Antho","ville":"MONTPELLIER","departement":34,"adresse":"1115 Avenue du Maréchal Leclerc","codePostal":34070,"lat":43.591732,"lng":3.888661,"nbVelos":1,"modeLivraison":"atelier","telephone":601639940,"email":"Latisophya@gmail.com","docsComplets":false,"velosLivres":0,"velosPlanifies":0},{"id":"cmoa7mb4d03x7b2g285qry1zz","entreprise":"BENELIE","contact":"Audrey CHEKROUN","apporteur":"Yoann","ville":"PARIS 07","departement":75,"adresse":"68 Rue DU BAC","codePostal":75007,"lat":48.855625,"lng":2.325122,"nbVelos":1,"modeLivraison":"atelier","telephone":660980896,"email":"achekroun@hotmail.com","docsComplets":false,"velosLivres":0,"velosPlanifies":0},{"id":"cmoa7mb3r03t7b2g2zcx61qou","entreprise":"BENJI PAYSAGE","contact":"Benjamin Colombero","apporteur":"Yoann","ville":"PARIS 17","departement":75,"adresse":"101 Rue DE PRONY","codePostal":75017,"lat":48.884452,"lng":2.298873,"nbVelos":4,"modeLivraison":"atelier","telephone":633444180,"email":"benji.paysage@gmail.com","docsComplets":false,"velosLivres":0,"velosPlanifies":0},{"id":"cmoa7mav401oyb2g2tjztmugc","entreprise":"BERDUGO METOUDI PARTENAIRES","contact":null,"apporteur":"John","ville":"PARIS 12","departement":75,"adresse":"50 Rue DE PICPUS","codePostal":75012,"lat":48.843928,"lng":2.396305,"nbVelos":5,"modeLivraison":"atelier","telephone":672543557,"email":"richard.berdugo@berdugometoudi.fr","docsComplets":false,"velosLivres":0,"velosPlanifies":5},{"id":"cmoa7maro01b6b2g22ns90pat","entreprise":"BERIT","contact":null,"apporteur":"Antho","ville":"TREMBLAY EN FRANCE","departement":93,"adresse":"4 Rue DES BUISSONS","codePostal":93290,"lat":48.99401,"lng":2.523915,"nbVelos":12,"modeLivraison":"atelier","telephone":628651011,"email":"xsarfati@gmail.com","docsComplets":false,"velosLivres":0,"velosPlanifies":0},{"id":"cmoa7mao700phb2g2dyrr4u4l","entreprise":"BF LOGISTIQUE","contact":null,"apporteur":"Alain","ville":"SIN LE NOBLE","departement":59,"adresse":"LA CENTRALE","codePostal":59450,"lat":50.359105,"lng":3.105869,"nbVelos":381,"modeLivraison":"atelier","telephone":608933915,"email":"tsautiere@simastock.fr","docsComplets":false,"velosLivres":0,"velosPlanifies":0},{"id":"cmoa7maoi00sqb2g2uzgdflbr","entreprise":"BILS DEROO SOLUTIONS","contact":null,"apporteur":"Alain","ville":"WAZIERS","departement":59,"adresse":"116 Rue CELESTIN DUBOIS","codePostal":59119,"lat":50.372072,"lng":3.110816,"nbVelos":381,"modeLivraison":"atelier","telephone":608933915,"email":"tsautiere@simastock.fr","docsComplets":true,"velosLivres":0,"velosPlanifies":0},{"id":"cmoa7mass01flb2g21ikgajaa","entreprise":"BIMAI PIERRIS","contact":null,"apporteur":"Antho","ville":"GAGNY","departement":93,"adresse":"4 Avenue des Frènes","codePostal":93220,"lat":48.875506,"lng":2.53743,"nbVelos":1,"modeLivraison":"atelier","telephone":766618898,"email":"pierrispro@gmail.com","docsComplets":false,"velosLivres":0,"velosPlanifies":0},{"id":"cmoa7mapc00zib2g22j5enteo","entreprise":"BME","contact":"Jennyfer VESPUCE","apporteur":"Alain","ville":"LA FERTE SOUS JOUARRE","departement":77,"adresse":"LA CROIX GOSSET","codePostal":77260,"lat":48.952034,"lng":3.132091,"nbVelos":11,"modeLivraison":"atelier","telephone":667299661,"email":"rh@wiamefils.com","docsComplets":false,"velosLivres":0,"velosPlanifies":0},{"id":"cmoa7mb2j03fhb2g206qro935","entreprise":"BMN NEGOCE","contact":null,"apporteur":"Yoann","ville":"LES MUREAUX","departement":78,"adresse":"11 B Rue DES PLEIADES","codePostal":78130,"lat":48.975359,"lng":1.91525,"nbVelos":8,"modeLivraison":"atelier","telephone":618530611,"email":"ninabazarvoltaire@orange.fr","docsComplets":false,"velosLivres":0,"velosPlanifies":0},{"id":"cmoa7mb4m03xxb2g24u9ffqmc","entreprise":"BOLD WOMAN INSTITUT","contact":null,"apporteur":"Yoann","ville":"VILLETANEUSE","departement":93,"adresse":"67 ALL des Amaryllis","codePostal":93430,"lat":48.951143,"lng":2.345375,"nbVelos":1,"modeLivraison":"atelier","telephone":624633999,"email":"b.lamrani@hotmail.fr","docsComplets":false,"velosLivres":0,"velosPlanifies":0},{"id":"cmoa7matc01gjb2g26dtyu6ox","entreprise":"BOUACEM YANNIS","contact":null,"apporteur":"Antho","ville":"VILLENEUVE D ASCQ","departement":59,"adresse":"71 Boulevard Albert 1er","codePostal":59491,"lat":50.656695,"lng":3.144571,"nbVelos":1,"modeLivraison":"atelier","telephone":610678043,"email":"Bouacem.yannis@gmail.com","docsComplets":false,"velosLivres":0,"velosPlanifies":0},{"id":"cmoa7mayg02klb2g2a3t8ilci","entreprise":"BOULANGERIE L'IMMACULEEE","contact":"Thomas GUYON","apporteur":"Thierry Bismuth","ville":"ST NAZAIRE","departement":44,"adresse":"36 Route DU CHATEAU DE BEAUREGARD","codePostal":44600,"lat":47.283792,"lng":-2.259465,"nbVelos":28,"modeLivraison":"atelier","telephone":667625266,"email":"boulangerie.immaculee@gmail.com","docsComplets":false,"velosLivres":0,"velosPlanifies":0},{"id":"cmoa7mapx0122b2g2bus1eyzv","entreprise":"BRDM","contact":null,"apporteur":"Alain","ville":"NOGENT L ARTAUD","departement":2,"adresse":"16 Route DE REBAIS","codePostal":2310,"lat":48.965407,"lng":3.326428,"nbVelos":7,"modeLivraison":"atelier","telephone":680503843,"email":"brdmrecyclage@gmail.com","docsComplets":true,"velosLivres":0,"velosPlanifies":0},{"id":"cmoa7mb3e03pnb2g2wgw9ffd5","entreprise":"BTYL","contact":null,"apporteur":"Yoann","ville":"BAGNOLET","departement":93,"adresse":"28 Avenue DU GENERAL DE GAULLE","codePostal":93170,"lat":48.865022,"lng":2.416916,"nbVelos":5,"modeLivraison":"atelier","telephone":650778838,"email":"sarlbtyl@gmail.com","docsComplets":false,"velosLivres":0,"velosPlanifies":0},{"id":"cmoa7mav901pqb2g2f065q2od","entreprise":"CABINET DOUKHAN COHEN ET ASSOCIES","contact":null,"apporteur":"John","ville":"PARIS 08","departement":75,"adresse":"45 Rue BOISSY D'ANGLAS","codePostal":75008,"lat":48.870327,"lng":2.322546,"nbVelos":8,"modeLivraison":"atelier","telephone":760503178,"email":"liordcohen@rome-audit-expertise.com","docsComplets":false,"velosLivres":0,"velosPlanifies":0},{"id":"cmoa7maxy02g3b2g25io7rbps","entreprise":"CAFE-BRASSERIE DE L'ARAGON","contact":"Hourcourigaray Jean","apporteur":"Thierry Bismuth","ville":"PAU","departement":64,"adresse":"18 Boulevard DES PYRENEES","codePostal":64000,"lat":43.293498,"lng":-0.369073,"nbVelos":65,"modeLivraison":"atelier","telephone":559271243,"email":"aragonbrasserie@gmail.com","docsComplets":true,"velosLivres":0,"velosPlanifies":0},{"id":"cmoa7mar6016ub2g27jl2ssa6","entreprise":"CAGNET PARE BRISE","contact":"Laura GAUTIER","apporteur":"Alain","ville":"QUINCY VOISINS","departement":77,"adresse":"28 B Rue VICTOR HUGO","codePostal":77860,"lat":48.899619,"lng":2.861908,"nbVelos":1,"modeLivraison":"atelier","telephone":619117505,"email":"comptabilite@at-groupe.fr","docsComplets":true,"velosLivres":0,"velosPlanifies":0},{"id":"cmoa7mave01qlb2g2d59md1xy","entreprise":"CARROSSERIE PINAS","contact":null,"apporteur":"John","ville":"ST MARTIN DE CRAU","departement":13,"adresse":"6 Avenue DU FOIRAIL","codePostal":13310,"lat":43.633405,"lng":4.804414,"nbVelos":6,"modeLivraison":"atelier","telephone":490472560,"email":"carrosseriepinas@outlook.com","docsComplets":false,"velosLivres":0,"velosPlanifies":0},{"id":"cmoa7mat201g5b2g27zl8v84b","entreprise":"CATCHA TV","contact":null,"apporteur":"Antho","ville":"LEVALLOIS PERRET","departement":92,"adresse":"10 Rue DE VILLIERS","codePostal":92300,"lat":48.88757,"lng":2.282615,"nbVelos":1,"modeLivraison":"atelier","telephone":660458018,"email":"egenin@catchatv.com","docsComplets":false,"velosLivres":0,"velosPlanifies":1},{"id":"cmoa7mapq0116b2g2nkzanut5","entreprise":"CB2I LP","contact":"Cynthia POMPORTES","apporteur":"Alain","ville":"BRIVE LA GAILLARDE","departement":19,"adresse":"6 Rue JOSEPH YERNAUX","codePostal":19100,"lat":45.146615,"lng":1.510022,"nbVelos":7,"modeLivraison":"atelier","telephone":761431275,"email":"secretariat@CB2I-lp.fr","docsComplets":true,"velosLivres":0,"velosPlanifies":0},{"id":"cmoa7maxl02avb2g2k4jl3gge","entreprise":"CELESTY FRANCE","contact":"Stanley Baudu","apporteur":"Thierry Bismuth","ville":"AVOUDREY","departement":25,"adresse":"1 Zone D'ACTIVITE SUR LE JURA","codePostal":25690,"lat":47.141134,"lng":6.442426,"nbVelos":41,"modeLivraison":"atelier","telephone":646586849,"email":"stanley.b@celesty.ch","docsComplets":false,"velosLivres":0,"velosPlanifies":0},{"id":"cmoa7mavy01t0b2g2stf6cq8q","entreprise":"CENTRE ACCES VISION STRASBOURG","contact":null,"apporteur":"Jordan","ville":"STRASBOURG","departement":67,"adresse":"273 Avenue DE COLMAR","codePostal":67100,"lat":48.552889,"lng":7.744407,"nbVelos":8,"modeLivraison":"atelier","telephone":611599626,"email":"jonlolmia@gmail.com","docsComplets":false,"velosLivres":0,"velosPlanifies":0},{"id":"cmoa7mazn02otb2g2amsziyjn","entreprise":"CHALLIER THIERRY","contact":"Thierry Challier","apporteur":"Thierry Bismuth","ville":"ST LAURENT D AIGOUZE","departement":30,"adresse":"Avenue DU GENERAL TROUCHAUD","codePostal":30220,"lat":43.628988,"lng":4.191874,"nbVelos":1,"modeLivraison":"atelier","telephone":674086295,"email":"thierry.challier@icloud.com","docsComplets":false,"velosLivres":0,"velosPlanifies":0},{"id":"cmoa7mb1k034lb2g28ai111q7","entreprise":"CHARR HALAL","contact":null,"apporteur":"Yoann","ville":"AULNAY SOUS BOIS","departement":93,"adresse":"Fosse A LA BARBIERE","codePostal":93600,"lat":48.952839,"lng":2.479548,"nbVelos":13,"modeLivraison":"atelier","telephone":628665587,"email":"rrhazi@hotmail.fr","docsComplets":true,"velosLivres":0,"velosPlanifies":13},{"id":"cmoa7matv01hhb2g2sjin1ugf","entreprise":"CHAUVET AMAURY","contact":null,"apporteur":"Bastien","ville":"CHATEAURENARD","departement":13,"adresse":"Traverse DU MAS GUIBERT","codePostal":13160,"lat":43.874315,"lng":4.810416,"nbVelos":1,"modeLivraison":"atelier","telephone":601450595,"email":"amaurychauvet@orange.fr","docsComplets":false,"velosLivres":0,"velosPlanifies":0},{"id":"cmoa7maty01hqb2g2laqluwu4","entreprise":"CHEN LEO","contact":"Chen Léo","apporteur":"Dylan","ville":"COURBEVOIE","departement":92,"adresse":"102 Avenue Marceau","codePostal":92400,"lat":48.901899,"lng":2.243582,"nbVelos":3,"modeLivraison":"atelier","telephone":767381018,"email":"lebrazza.leo@gmail.com","docsComplets":false,"velosLivres":3,"velosPlanifies":0},{"id":"cmoa7mat601gbb2g276v7hh8v","entreprise":"CHEZ PATOU","contact":null,"apporteur":"Antho","ville":"ST VIANCE","departement":19,"adresse":"1 Rue Du Pontel","codePostal":19240,"lat":45.217608,"lng":1.452591,"nbVelos":1,"modeLivraison":"atelier","telephone":631364588,"email":"pdemaison23@gmail.com","docsComplets":false,"velosLivres":0,"velosPlanifies":0},{"id":"cmoa7mawe01wnb2g2o7xenzdi","entreprise":"CHRISTOPHE ET GUILLAUME","contact":"Guillaume Etlin","apporteur":"Oscar","ville":"PARIS 03","departement":75,"adresse":"12 Rue Dupetit Thouars","codePostal":75003,"lat":48.865406,"lng":2.361949,"nbVelos":8,"modeLivraison":"atelier","telephone":610746518,"email":"guillaume@christophelouie.com","docsComplets":false,"velosLivres":0,"velosPlanifies":8},{"id":"cmoa7mb0702ppb2g27advxzoa","entreprise":"CJ PROJECT","contact":"Cécile FOURNIER","apporteur":"Thierry Bismuth","ville":"COURTRY","departement":77,"adresse":"37 Rue DE LA REGALE","codePostal":77181,"lat":48.907191,"lng":2.605633,"nbVelos":12,"modeLivraison":"atelier","telephone":619813661,"email":"fourniercecile.pro@gmail.com","docsComplets":false,"velosLivres":0,"velosPlanifies":0},{"id":"cmoa7mav201olb2g2qd7mfjrs","entreprise":"COFIM BEARN PYRENEES","contact":null,"apporteur":"John","ville":"PAU","departement":64,"adresse":"14 Avenue DU GENERAL LECLERC","codePostal":64000,"lat":43.306006,"lng":-0.336821,"nbVelos":12,"modeLivraison":"atelier","telephone":607128147,"email":"olivier.birade@cofim-immobilier.com","docsComplets":false,"velosLivres":0,"velosPlanifies":0},{"id":"cmoa7mauo01mab2g277fcg9gc","entreprise":"CONSEILS ET STRATEGIE","contact":"Alain-Philippe Etlin","apporteur":"John","ville":"CRETEIL","departement":94,"adresse":"33 Avenue PIERRE BROSSOLETTE","codePostal":94000,"lat":48.791468,"lng":2.462421,"nbVelos":9,"modeLivraison":"atelier","telephone":612439615,"email":"ap.etlin@acofi.fr","docsComplets":false,"velosLivres":0,"velosPlanifies":0},{"id":"cmoa7mb4203v1b2g249ojvr2j","entreprise":"CONSERVERIE DE L'ILE D'YEU","contact":null,"apporteur":"Yoann","ville":"L ILE D YEU","departement":85,"adresse":"28 Rue de la Plage","codePostal":85350,"lat":46.723237,"lng":-2.343721,"nbVelos":2,"modeLivraison":"atelier","telephone":785182054,"email":"quentin@yeuconserverie.fr","docsComplets":false,"velosLivres":0,"velosPlanifies":0},{"id":"cmoa7mb1002zhb2g25u9q7bb0","entreprise":"CORIMA (COMPTOIR D'ORIENT ET DU MAROC)","contact":"AITYDIR ALI","apporteur":"Yoann","ville":"VILLENEUVE LA GARENNE","departement":92,"adresse":"11 Avenue DU CHEMIN DES RENIERS","codePostal":92390,"lat":48.931112,"lng":2.324081,"nbVelos":21,"modeLivraison":"atelier","telephone":620260318,"email":"a.ali@tradcofrance.com","docsComplets":false,"velosLivres":0,"velosPlanifies":0},{"id":"cmoa7maqm0159b2g2bp9krdq3","entreprise":"CREPERIE LA GOURMANDINE","contact":null,"apporteur":"Alain","ville":"ETEL","departement":56,"adresse":"3 Rue DU MOULIN","codePostal":56410,"lat":47.660151,"lng":-3.187509,"nbVelos":3,"modeLivraison":"atelier","telephone":650456012,"email":"creperie.gourmandine@yahoo.fr","docsComplets":false,"velosLivres":0,"velosPlanifies":0},{"id":"cmoa7maur01mkb2g2r8jzfq9n","entreprise":"CRETEIL SERVICES","contact":"Alain-Philippe Etlin","apporteur":"John","ville":"CRETEIL","departement":94,"adresse":"33 Avenue PIERRE BROSSOLETTE","codePostal":94000,"lat":48.791468,"lng":2.462421,"nbVelos":9,"modeLivraison":"atelier","telephone":612439615,"email":"ap.etlin@acofi.fr","docsComplets":false,"velosLivres":0,"velosPlanifies":0},{"id":"cmoa7marl01aeb2g2rwp9d5ei","entreprise":"D ET T","contact":null,"apporteur":"Antho","ville":"LOUVECIENNES","departement":78,"adresse":"2 Quai CONTI","codePostal":78430,"lat":48.87287,"lng":2.121866,"nbVelos":14,"modeLivraison":"atelier","telephone":660920632,"email":"Maisonlouveciennes78430@gmail.com","docsComplets":false,"velosLivres":0,"velosPlanifies":0},{"id":"cmoa7mavd01qeb2g2jebsym15","entreprise":"DALIA COMMERCES FRANCE","contact":null,"apporteur":"John","ville":"PARIS 11","departement":75,"adresse":"37 Boulevard DE BELLEVILLE","codePostal":75011,"lat":48.869005,"lng":2.38024,"nbVelos":6,"modeLivraison":"atelier","telephone":680413485,"email":"sas.dcfr@gmail.com","docsComplets":true,"velosLivres":0,"velosPlanifies":0},{"id":"cmoa7mb1t036rb2g2wxqg3bhb","entreprise":"DAMAK","contact":null,"apporteur":"Yoann","ville":"VILLIERS LE BEL","departement":95,"adresse":"22 Avenue DES ENTREPRENEURS","codePostal":95400,"lat":48.9991,"lng":2.392696,"nbVelos":11,"modeLivraison":"atelier","telephone":768058653,"email":"contact.firatfood@dasty-france.com","docsComplets":false,"velosLivres":0,"velosPlanifies":11},{"id":"cmoa7mb4303v4b2g2ms4zcr7e","entreprise":"DELICES FAMILY","contact":null,"apporteur":"Yoann","ville":"JUVIGNAC","departement":34,"adresse":"11 Rue BONNIER DE LA MOSSON","codePostal":34990,"lat":43.614023,"lng":3.814544,"nbVelos":2,"modeLivraison":"atelier","telephone":623039399,"email":"familymarket34@gmail.com","docsComplets":false,"velosLivres":0,"velosPlanifies":0},{"id":"cmoa7matp01h9b2g2akd5v2km","entreprise":"DESIGN ENTREPRISE","contact":null,"apporteur":"Antho","ville":"GIGNAC","departement":34,"adresse":"23 Impasse DES LAURIERS ROSES","codePostal":34150,"lat":43.654349,"lng":3.55595,"nbVelos":1,"modeLivraison":"atelier","telephone":624538247,"email":"belafianedjanette@live.fr","docsComplets":false,"velosLivres":0,"velosPlanifies":0},{"id":"cmoa7mayv02mnb2g281e9hdx8","entreprise":"DEUX RESTAURANT","contact":null,"apporteur":"Thierry Bismuth","ville":"PARIS 11","departement":75,"adresse":"58 Rue DE LA FONTAINE AU ROI","codePostal":75011,"lat":48.868132,"lng":2.373873,"nbVelos":4,"modeLivraison":"atelier","telephone":974974752,"email":"restaurant@deux-restaurant.fr","docsComplets":false,"velosLivres":0,"velosPlanifies":0},{"id":"cmoa7mata01gfb2g29ly5cxjk","entreprise":"DIDIER BERDAH","contact":null,"apporteur":"Antho","ville":"PARIS 17","departement":75,"adresse":"75 Avenue des Ternes","codePostal":75017,"lat":48.879494,"lng":2.289768,"nbVelos":1,"modeLivraison":"atelier","telephone":775779593,"email":"Dberdah@gmail.com","docsComplets":false,"velosLivres":0,"velosPlanifies":0},{"id":"cmoa7mau001iab2g2laz7nezw","entreprise":"DIGITAL 111","contact":null,"apporteur":"Dylan","ville":"PARIS 01","departement":75,"adresse":"39 Rue DES PETITS CHAMPS","codePostal":75001,"lat":48.866837,"lng":2.336277,"nbVelos":12,"modeLivraison":"atelier","telephone":659558989,"email":"mike@sauvage111.com","docsComplets":true,"velosLivres":0,"velosPlanifies":12},{"id":"cmoa7masn01fdb2g2ajs5m51z","entreprise":"DMF","contact":null,"apporteur":"Antho","ville":"RUNGIS","departement":94,"adresse":"11 Residence Medicis","codePostal":94150,"lat":48.746605,"lng":2.348833,"nbVelos":1,"modeLivraison":"atelier","telephone":662319708,"email":"ychafik@gmail.com","docsComplets":false,"velosLivres":0,"velosPlanifies":0},{"id":"cmoa7maz302ncb2g2bw9p82nm","entreprise":"DOMAINE LAURENT HABRARD","contact":null,"apporteur":"Thierry Bismuth","ville":"GERVANS","departement":26,"adresse":"7 Route DES BLANCS","codePostal":26600,"lat":45.109653,"lng":4.831633,"nbVelos":3,"modeLivraison":"atelier","telephone":660616026,"email":"laurent@laurenthabrard.com","docsComplets":false,"velosLivres":0,"velosPlanifies":0},{"id":"cmoa7mb1c032ab2g2b44lx6ho","entreprise":"DOSTLAR FRANCE","contact":null,"apporteur":"Yoann","ville":"AULNAY SOUS BOIS","departement":93,"adresse":"1 Rue JEAN PIERRE TIMBAUD","codePostal":93600,"lat":48.952573,"lng":2.47825,"nbVelos":17,"modeLivraison":"atelier","telephone":660989191,"email":"dostlarfrance@aol.fr","docsComplets":true,"velosLivres":0,"velosPlanifies":17},{"id":"cmoa7mazc02nzb2g2q4w3frgg","entreprise":"DUCELLIER MATHIEU","contact":null,"apporteur":"Thierry Bismuth","ville":"VIVONNE","departement":86,"adresse":"24  GRANDE RUE","codePostal":86370,"lat":46.426645,"lng":0.261651,"nbVelos":4,"modeLivraison":"atelier","telephone":549434170,"email":"matthieu.ducellier@mutuelledepoitiers.fr","docsComplets":false,"velosLivres":0,"velosPlanifies":0},{"id":"cmoa7mav601p4b2g24klimwvc","entreprise":"E APPS","contact":null,"apporteur":"John","ville":"FONTENAY SOUS BOIS","departement":94,"adresse":"42 Rue SAINT-GERMAIN","codePostal":94120,"lat":48.850951,"lng":2.473024,"nbVelos":2,"modeLivraison":"atelier","telephone":698501112,"email":"jorge@e-apps.fr","docsComplets":false,"velosLivres":0,"velosPlanifies":0},{"id":"cmoa7mb4t03yrb2g2q381g7ov","entreprise":"EARL DOMAINE DE PENEDESSES","contact":null,"apporteur":"#N/A","ville":"GABIAN","departement":34,"adresse":"Route DE FOUZILHON","codePostal":34320,"lat":43.504536,"lng":3.2432,"nbVelos":4,"modeLivraison":"atelier","telephone":698287515,"email":"latourpenedesses@gmail.com","docsComplets":false,"velosLivres":0,"velosPlanifies":0},{"id":"cmoa7marf018hb2g2rzldj771","entreprise":"ECO'NOMY","contact":null,"apporteur":"Antho","ville":"ST MANDE","departement":94,"adresse":"6 Rue VITEAU","codePostal":94160,"lat":48.847487,"lng":2.418253,"nbVelos":30,"modeLivraison":"atelier","telephone":673474329,"email":"isolation.gpe@gmail.com","docsComplets":false,"velosLivres":0,"velosPlanifies":0},{"id":"cmoa7mb4i03xfb2g21lu4865e","entreprise":"ECOJED","contact":null,"apporteur":"Yoann","ville":"CRETEIL","departement":94,"adresse":"19 Rue PAUL SEJOURNE","codePostal":94000,"lat":48.766442,"lng":2.476344,"nbVelos":1,"modeLivraison":"atelier","telephone":660142511,"email":"elmalehceline@hotmail.com","docsComplets":true,"velosLivres":0,"velosPlanifies":0},{"id":"cmoa7mas101dqb2g20xvinxi6","entreprise":"ECURIE DE LA DENTELLE","contact":null,"apporteur":"Antho","ville":"VOLNAY","departement":72,"adresse":"LES RATIERS","codePostal":72440,"lat":47.948286,"lng":0.498176,"nbVelos":6,"modeLivraison":"atelier","telephone":629549143,"email":"pauline.bottin@hotmail.fr","docsComplets":false,"velosLivres":0,"velosPlanifies":0},{"id":"cmoa7may002gpb2g2dlrqffb7","entreprise":"EDITIONS RIVA","contact":null,"apporteur":"Thierry Bismuth","ville":"PARIS 11","departement":75,"adresse":"16 Rue DE LA FONTAINE AU ROI","codePostal":75011,"lat":48.868357,"lng":2.37023,"nbVelos":18,"modeLivraison":"atelier","telephone":140211707,"email":"virginie@aboriva.com","docsComplets":false,"velosLivres":0,"velosPlanifies":0},{"id":"cmoa7maqy016eb2g2z6wks504","entreprise":"EGE BAT","contact":null,"apporteur":"Alain","ville":"CLAYE SOUILLY","departement":77,"adresse":"100 Allée DES MARGUERITES","codePostal":77410,"lat":48.938231,"lng":2.64456,"nbVelos":1,"modeLivraison":"atelier","telephone":613621752,"email":"compta.egebat@gmail.com","docsComplets":false,"velosLivres":0,"velosPlanifies":0},{"id":"cmoa7mb4n03y1b2g2o1qa99iq","entreprise":"EGUIENTA EMMANUELLE","contact":null,"apporteur":"Yoann","ville":"VIGNEUX SUR SEINE","departement":91,"adresse":"4 Rue MARCEL CACHIN","codePostal":91270,"lat":48.700627,"lng":2.440194,"nbVelos":1,"modeLivraison":"atelier","telephone":760739375,"email":"emma.eguienta@gmail.com","docsComplets":false,"velosLivres":0,"velosPlanifies":0},{"id":"cmoa7maws01zab2g26im05ket","entreprise":"EM TRAPPES","contact":null,"apporteur":"Ramzi","ville":"CORBEIL ESSONNES","departement":91,"adresse":"178 Boulevard JOHN KENNEDY","codePostal":91100,"lat":48.579977,"lng":2.475995,"nbVelos":10,"modeLivraison":"atelier","telephone":662490923,"email":"qirection@em78.fr","docsComplets":false,"velosLivres":0,"velosPlanifies":0},{"id":"cmoa7masx01fxb2g23u6zjgl2","entreprise":"EMPIRE LIFESTYLE","contact":null,"apporteur":"Antho","ville":"PARIS 16","departement":75,"adresse":"23 Rue LE SUEUR","codePostal":75016,"lat":48.875455,"lng":2.287161,"nbVelos":1,"modeLivraison":"atelier","telephone":610366383,"email":"contact@empirelifestyle.fr","docsComplets":true,"velosLivres":0,"velosPlanifies":0},{"id":"cmoa7mawk01xzb2g279tqj4bh","entreprise":"ENIO","contact":null,"apporteur":"Paul","ville":"PARIS 01","departement":75,"adresse":"7 B Rue DU COLONEL DRIANT","codePostal":75001,"lat":48.863275,"lng":2.340462,"nbVelos":12,"modeLivraison":"atelier","telephone":781027272,"email":"iovines.enio@gmail.com","docsComplets":true,"velosLivres":0,"velosPlanifies":5},{"id":"cmoa7maox00w6b2g2wnb2reym","entreprise":"ENTREPRISE PATIER","contact":null,"apporteur":"Alain","ville":"BRIVE LA GAILLARDE","departement":19,"adresse":"6 Rue JOSEPH YERNAUX","codePostal":19100,"lat":45.146615,"lng":1.510022,"nbVelos":18,"modeLivraison":"atelier","telephone":614071985,"email":"contact@patiercouverture-brive.fr","docsComplets":true,"velosLivres":0,"velosPlanifies":0},{"id":"cmoa7maqv0162b2g2y8xs4p8r","entreprise":"EQUIPLUS","contact":null,"apporteur":"Alain","ville":"GLATIGNY","departement":57,"adresse":"Ferme DE LA BRUYERE","codePostal":57530,"lat":49.13704,"lng":6.358682,"nbVelos":2,"modeLivraison":"atelier","telephone":608538893,"email":"ste.equi-plus@wanadoo.fr","docsComplets":true,"velosLivres":0,"velosPlanifies":0},{"id":"cmoa7marn01atb2g2aiwy2iqp","entreprise":"ERETS","contact":null,"apporteur":"Antho","ville":"PANTIN","departement":93,"adresse":"92 Rue DIDEROT","codePostal":93500,"lat":48.904058,"lng":2.402441,"nbVelos":12,"modeLivraison":"atelier","telephone":625178351,"email":"jeremy@erets.fr","docsComplets":false,"velosLivres":0,"velosPlanifies":0},{"id":"cmoa7max80251b2g2zt4hz1cv","entreprise":"ESMER ENERGY","contact":null,"apporteur":"Sacha","ville":"SARCELLES","departement":95,"adresse":"13 Rue MONTFLEURY","codePostal":95200,"lat":48.992289,"lng":2.380056,"nbVelos":4,"modeLivraison":"atelier","telephone":651426618,"email":"esmerenergy@gmail.com","docsComplets":true,"velosLivres":0,"velosPlanifies":0},{"id":"cmoa7mazv02p7b2g2x3b9ulra","entreprise":"ESSENSI'O","contact":null,"apporteur":"Thierry Bismuth","ville":"PARIS 12","departement":75,"adresse":"39 Rue DE LA GARE DE REUILLY","codePostal":75012,"lat":48.841779,"lng":2.39543,"nbVelos":1,"modeLivraison":"atelier","telephone":780965082,"email":"contact@myessensio.com","docsComplets":false,"velosLivres":0,"velosPlanifies":1},{"id":"cmoa7mazu02p5b2g2vfct9dar","entreprise":"ETS CLEMENT HARINTHE","contact":null,"apporteur":"Thierry Bismuth","ville":"VAUCELLES ET BEFFECOURT","departement":2,"adresse":"2 Rue HAUTE","codePostal":2000,"lat":49.530572,"lng":3.553006,"nbVelos":1,"modeLivraison":"atelier","telephone":667643755,"email":"harinthe@gmail.com","docsComplets":false,"velosLivres":0,"velosPlanifies":0},{"id":"cmoa7mau901jlb2g24y3ip867","entreprise":"ETS DITCHI","contact":null,"apporteur":"Jerome","ville":"CHARENTON LE PONT","departement":94,"adresse":"82 Rue DE PARIS","codePostal":94220,"lat":48.823079,"lng":2.411536,"nbVelos":5,"modeLivraison":"atelier","telephone":664709754,"email":"etsditchi@gmail.com","docsComplets":false,"velosLivres":0,"velosPlanifies":0},{"id":"cmoa7maxs02e1b2g2axkofa0w","entreprise":"ETS JACQUES TAVEAU","contact":null,"apporteur":"Thierry Bismuth","ville":"ST ANDRE FARIVILLERS","departement":60,"adresse":"1 Rue DE L'ARGILLIERE","codePostal":60480,"lat":49.582716,"lng":2.320196,"nbVelos":28,"modeLivraison":"atelier","telephone":676738763,"email":"hugues@taveau.fr","docsComplets":false,"velosLivres":0,"velosPlanifies":0},{"id":"cmoa7maqn015db2g2mzdsbrqn","entreprise":"ETS SOURISSEAU","contact":null,"apporteur":"Alain","ville":"FLEURY","departement":60,"adresse":"388  GRANDE RUE","codePostal":60240,"lat":49.245087,"lng":1.969604,"nbVelos":3,"modeLivraison":"atelier","telephone":650284524,"email":"sourisseau60240@hotmail.fr","docsComplets":true,"velosLivres":0,"velosPlanifies":0},{"id":"cmoa7mb1m034zb2g27p0oobh6","entreprise":"EURORIENT","contact":null,"apporteur":"Yoann","ville":"BONDOUFLE","departement":91,"adresse":"18 Rue GUSTAVE EIFFEL","codePostal":91070,"lat":48.6224,"lng":2.378313,"nbVelos":12,"modeLivraison":"atelier","telephone":662699597,"email":"Achat@eurorient.fr","docsComplets":true,"velosLivres":0,"velosPlanifies":0},{"id":"cmoa7mb170317b2g28wngcish","entreprise":"FAMILY MARKET","contact":null,"apporteur":"Yoann","ville":"JUVIGNAC","departement":34,"adresse":"11 Rue BONNIER DE LA MOSSON","codePostal":34990,"lat":43.614023,"lng":3.814544,"nbVelos":19,"modeLivraison":"atelier","telephone":"","email":"","docsComplets":false,"velosLivres":0,"velosPlanifies":0},{"id":"cmoa7maqp015hb2g2g0yzse6m","entreprise":"FEDERATION SPORTIVE & GYMNIQUE DU TRAVAIL","contact":null,"apporteur":"Alain","ville":"VALENCIENNES","departement":59,"adresse":"20 Avenue SAINT-ROCH","codePostal":59300,"lat":50.363973,"lng":3.534784,"nbVelos":3,"modeLivraison":"atelier","telephone":608095728,"email":"Tal.cartier@gmail.com","docsComplets":true,"velosLivres":0,"velosPlanifies":0},{"id":"cmoa7maqc0148b2g2we0040h2","entreprise":"FELINS POSSIBLE 50","contact":null,"apporteur":"Alain","ville":"CRASVILLE","departement":50,"adresse":"3  ROUGE CUL","codePostal":50630,"lat":49.550221,"lng":-1.324967,"nbVelos":4,"modeLivraison":"atelier","telephone":664989893,"email":"felinspossible@gmail.com","docsComplets":false,"velosLivres":0,"velosPlanifies":0},{"id":"cmoa7mar1016kb2g23ulseo8f","entreprise":"FERMETURE DE LA BRIE SEINE-SAINT-DENIS","contact":null,"apporteur":"Alain","ville":"GAGNY","departement":93,"adresse":"1 Avenue LEON BRY","codePostal":93220,"lat":48.885432,"lng":2.534854,"nbVelos":1,"modeLivraison":"atelier","telephone":603977608,"email":"compta@fbrie.com","docsComplets":true,"velosLivres":0,"velosPlanifies":0},{"id":"cmoa7maos00urb2g2teyd0n46","entreprise":"FERMETURES DE LA BRIE 77","contact":null,"apporteur":"Alain","ville":"ST THIBAULT DES VIGNES","departement":77,"adresse":"Rue DE LA NOUE GUIMANTE","codePostal":77400,"lat":48.86898,"lng":2.676531,"nbVelos":29,"modeLivraison":"atelier","telephone":603977608,"email":"compta@fbrie.com","docsComplets":true,"velosLivres":0,"velosPlanifies":0},{"id":"cmoa7maql0155b2g2r6hmr1qu","entreprise":"FERMETURES DE LA BRIE SERVICES","contact":null,"apporteur":"Alain","ville":"ST THIBAULT DES VIGNES","departement":77,"adresse":"Rue DE LA NOUE GUIMANTE","codePostal":77400,"lat":48.86898,"lng":2.676531,"nbVelos":3,"modeLivraison":"atelier","telephone":603977608,"email":"compta@fbrie.com","docsComplets":true,"velosLivres":0,"velosPlanifies":0},{"id":"cmoa7mazq02ozb2g21nj1nxnv","entreprise":"FFL PATRIMOINE","contact":null,"apporteur":"Thierry Bismuth","ville":"JARNAC","departement":16,"adresse":"58 Rue DES CHABANNES","codePostal":16200,"lat":45.678824,"lng":-0.167878,"nbVelos":1,"modeLivraison":"atelier","telephone":622100314,"email":"francois.lorrain@transformia.fr","docsComplets":false,"velosLivres":0,"velosPlanifies":0},{"id":"cmoa7mar4016qb2g2elyjlhr8","entreprise":"FIEHRER CHARLOTTE","contact":null,"apporteur":"Alain","ville":"QUIBERON","departement":56,"adresse":"1 Rue DE KERNAVEST","codePostal":56170,"lat":47.493804,"lng":-3.123494,"nbVelos":1,"modeLivraison":"atelier","telephone":784751959,"email":"charlottefiehrer@hotmail.com","docsComplets":true,"velosLivres":0,"velosPlanifies":0},{"id":"cmoa7marw01csb2g21xp704jv","entreprise":"FINANCIERE DU ROND POINT","contact":null,"apporteur":"Antho","ville":"PARIS 08","departement":75,"adresse":"14 Rue DE COURCELLES","codePostal":75008,"lat":48.873907,"lng":2.310683,"nbVelos":8,"modeLivraison":"atelier","telephone":627452836,"email":"contact@financieredurondpoint.com","docsComplets":true,"velosLivres":0,"velosPlanifies":0},{"id":"cmoa7mb0n02usb2g2e1clxtn2","entreprise":"FIRAT FOOD","contact":null,"apporteur":"Yoann","ville":"ROISSY EN FRANCE","departement":95,"adresse":"75 Avenue DU BOIS DE LA PIE","codePostal":95700,"lat":48.979874,"lng":2.50617,"nbVelos":35,"modeLivraison":"atelier","telephone":768058653,"email":"contact.firatfood@dasty-france.com","docsComplets":true,"velosLivres":0,"velosPlanifies":35},{"id":"cmoa7marb0174b2g292vaoowq","entreprise":"FLAT GESTION","contact":null,"apporteur":"Antho","ville":"PARIS 17","departement":75,"adresse":"9 Rue DE THANN","codePostal":75017,"lat":48.881681,"lng":2.309793,"nbVelos":48,"modeLivraison":"atelier","telephone":626269741,"email":"stanley@checkinagency.com","docsComplets":false,"velosLivres":0,"velosPlanifies":0},{"id":"cmoa7mate01gnb2g2ozopf80y","entreprise":"FONTAINE MAUD","contact":null,"apporteur":"Antho","ville":"ST AIGNAN","departement":72,"adresse":"LA BESNERIE","codePostal":72110,"lat":48.228529,"lng":0.375378,"nbVelos":1,"modeLivraison":"atelier","telephone":660268996,"email":"maud_harasdesg@yahoo.com","docsComplets":false,"velosLivres":0,"velosPlanifies":0},{"id":"cmoa7mato01h7b2g285wgsm18","entreprise":"FOR.K","contact":null,"apporteur":"Antho","ville":"PARIS 20","departement":75,"adresse":"7 Rue VICTOR LETALLE","codePostal":75020,"lat":48.866969,"lng":2.385484,"nbVelos":1,"modeLivraison":"atelier","telephone":784872690,"email":"aber.yousef@sfr.fr","docsComplets":false,"velosLivres":0,"velosPlanifies":0},{"id":"cmoa7mayc02jkb2g2c8bficdy","entreprise":"FOREST PIONEER FRANCE","contact":null,"apporteur":"Thierry Bismuth","ville":"EGLETONS","departement":19,"adresse":"Boulevard DE BETHLEEM","codePostal":19300,"lat":45.398055,"lng":2.03174,"nbVelos":14,"modeLivraison":"atelier","telephone":604980733,"email":"mariejo.echeverria@forestpioneer.com","docsComplets":false,"velosLivres":0,"velosPlanifies":0},{"id":"cmoa7mavk01rcb2g2h5xn5u9n","entreprise":"FRANCE CONSEILS ECOLOGIE","contact":null,"apporteur":"John","ville":"COURBEVOIE","departement":92,"adresse":"7 Avenue DE CHATEAU DU LOIR","codePostal":92400,"lat":48.899119,"lng":2.250814,"nbVelos":4,"modeLivraison":"atelier","telephone":606579676,"email":"Wser.conseils@gmail.com","docsComplets":false,"velosLivres":0,"velosPlanifies":4},{"id":"cmoa7may902ipb2g2eat0w5ia","entreprise":"FRATERNITE DU PARTAGE","contact":null,"apporteur":"Thierry Bismuth","ville":"AJACCIO","departement":20,"adresse":"20 Rue HYACINTHE CAMPIGLIA","codePostal":20000,"lat":41.927391,"lng":8.737781,"nbVelos":21,"modeLivraison":"atelier","telephone":495209334,"email":"fraternitedupartage@gmail.com","docsComplets":false,"velosLivres":0,"velosPlanifies":0},{"id":"cmoa7mb0402plb2g214hjgle1","entreprise":"FREGONA NICOLAS","contact":null,"apporteur":"Thierry Bismuth","ville":"ST NAZAIRE","departement":44,"adresse":"38 Avenue DE VILLENEUVE","codePostal":44600,"lat":47.28108,"lng":-2.242628,"nbVelos":1,"modeLivraison":"atelier","telephone":609688000,"email":"nicolas.fregona@gmail.com","docsComplets":false,"velosLivres":0,"velosPlanifies":0},{"id":"cmoa7mb4r03yfb2g20clsly23","entreprise":"G.I.C GARD INDUSTRIE CAOUTCHOUC","contact":null,"apporteur":"#N/A","ville":"ST GILLES","departement":30,"adresse":"635 Rue DE L'AVENIR","codePostal":30800,"lat":43.672474,"lng":4.449206,"nbVelos":5,"modeLivraison":"atelier","telephone":609529380,"email":"gic.compta@orange.fr","docsComplets":false,"velosLivres":0,"velosPlanifies":0},{"id":"cmoa7mat901gdb2g2su4yev29","entreprise":"GALITH OSTEOPATHIE","contact":null,"apporteur":"Antho","ville":"PARIS 07","departement":75,"adresse":"27 Avenue DE SEGUR","codePostal":75007,"lat":48.851134,"lng":2.309779,"nbVelos":1,"modeLivraison":"atelier","telephone":660065206,"email":"ALLALIGALITH@GMAIL.COM","docsComplets":false,"velosLivres":0,"velosPlanifies":0},{"id":"cmoa7max7024rb2g2awt0csa5","entreprise":"GEBAUDE","contact":null,"apporteur":"Sacha","ville":"SARCELLES","departement":95,"adresse":"9 Avenue DU 8 MAI 1945","codePostal":95200,"lat":48.977071,"lng":2.374333,"nbVelos":9,"modeLivraison":"atelier","telephone":672670962,"email":"lt.gebaude@gmail.com","docsComplets":true,"velosLivres":0,"velosPlanifies":0},{"id":"cmoa7mayn02lsb2g2v0hakw5o","entreprise":"GEOCOMMUNICATION ET NETWORKS","contact":null,"apporteur":"Thierry Bismuth","ville":"BOBIGNY","departement":93,"adresse":"1 Promenade JEAN ROSTAND","codePostal":93000,"lat":48.908234,"lng":2.453072,"nbVelos":7,"modeLivraison":"atelier","telephone":623686970,"email":"f.fau@geocom-networks.com","docsComplets":true,"velosLivres":0,"velosPlanifies":0},{"id":"cmoa7maze02o5b2g20748z2r6","entreprise":"GEOPROTECT SOLUTIONS","contact":null,"apporteur":"Thierry Bismuth","ville":"CORBEIL ESSONNES","departement":91,"adresse":"18 Rue GUSTAVE EIFFEL","codePostal":91100,"lat":48.618344,"lng":2.466196,"nbVelos":2,"modeLivraison":"atelier","telephone":623686970,"email":"administratif@geoprotect.fr","docsComplets":false,"velosLivres":0,"velosPlanifies":0},{"id":"cmoa7masp01fhb2g27d3lcl63","entreprise":"GEORGES BENEDETTI ET COMPAGNIE","contact":null,"apporteur":"Antho","ville":"ROZAY EN BRIE","departement":77,"adresse":"18 Avenue EPI","codePostal":77540,"lat":48.687645,"lng":2.961078,"nbVelos":1,"modeLivraison":"atelier","telephone":673373009,"email":"contact@georges-benedetti-et-cie.fr","docsComplets":false,"velosLivres":0,"velosPlanifies":0},{"id":"cmoa7mau301isb2g2f6963ck1","entreprise":"GFS","contact":null,"apporteur":"Dylan","ville":"LA CHAPELLE GAUTHIER","departement":77,"adresse":"110 Rue du Traveteau","codePostal":77720,"lat":48.550306,"lng":2.897036,"nbVelos":1,"modeLivraison":"atelier","telephone":623161985,"email":"gfs171272@gmail.com","docsComplets":false,"velosLivres":0,"velosPlanifies":0},{"id":"cmoa7mb3f03ptb2g2b89z1c28","entreprise":"GIULIA2","contact":null,"apporteur":"Yoann","ville":"ARCUEIL","departement":94,"adresse":"CAR DE LA VACHE NOIRE","codePostal":94110,"lat":48.810713,"lng":2.327057,"nbVelos":5,"modeLivraison":"atelier","telephone":650104690,"email":"sarlgiulia2@gmail.com","docsComplets":false,"velosLivres":0,"velosPlanifies":0},{"id":"cmoa7mar2016mb2g2cvmbv1jf","entreprise":"GLOBAL CONSEIL ENERGIE","contact":null,"apporteur":"Alain","ville":"PANTIN","departement":93,"adresse":"29 Rue CARTIER BRESSON","codePostal":93500,"lat":48.902899,"lng":2.397259,"nbVelos":55,"modeLivraison":"atelier","telephone":619849510,"email":"agathe.attal@gmail.com","docsComplets":true,"velosLivres":0,"velosPlanifies":0},{"id":"cmoa7mar8016yb2g2m0xjbl8i","entreprise":"GLOBAL ENERGIE HABITAT CONSEILS","contact":null,"apporteur":"Alain","ville":"LEVALLOIS PERRET","departement":92,"adresse":"67 Rue LOUISE MICHEL","codePostal":92300,"lat":48.890047,"lng":2.290142,"nbVelos":1,"modeLivraison":"atelier","telephone":625953257,"email":"jamaedition@hotmail.com","docsComplets":false,"velosLivres":0,"velosPlanifies":1},{"id":"cmoa7maza02nwb2g2uw996t3k","entreprise":"GLOBCOM","contact":null,"apporteur":"Thierry Bismuth","ville":"MONTFERMEIL","departement":93,"adresse":"6 Avenue DES FRERES LUMIERE","codePostal":93370,"lat":48.901045,"lng":2.585162,"nbVelos":2,"modeLivraison":"atelier","telephone":621532208,"email":"direction@globcom77.fr","docsComplets":true,"velosLivres":0,"velosPlanifies":0},{"id":"cmoa7mast01fnb2g2hse5u4vc","entreprise":"GOVAL SUFRED","contact":null,"apporteur":"Antho","ville":"LE PERREUX SUR MARNE","departement":94,"adresse":"23 Rue de la Station","codePostal":94170,"lat":48.844035,"lng":2.507003,"nbVelos":1,"modeLivraison":"atelier","telephone":619189301,"email":"sulfred.goval@gmail.com","docsComplets":false,"velosLivres":0,"velosPlanifies":0},{"id":"cmoa7maxq02d6b2g2y9mna4h6","entreprise":"GPCONSULTING","contact":null,"apporteur":"Thierry Bismuth","ville":"AULNAY SOUS BOIS","departement":93,"adresse":"7 Place DE L'HOTEL DE VILLE","codePostal":93600,"lat":48.934515,"lng":2.499755,"nbVelos":30,"modeLivraison":"atelier","telephone":610844369,"email":"guillaume@reekom.fr","docsComplets":false,"velosLivres":0,"velosPlanifies":30},{"id":"cmoa7maqx0168b2g281jloilk","entreprise":"GRAIN DE CHARME","contact":null,"apporteur":"Alain","ville":"LONGEVILLE LES METZ","departement":57,"adresse":"67 Boulevard SAINT-SYMPHORIEN","codePostal":57050,"lat":49.114512,"lng":6.153772,"nbVelos":2,"modeLivraison":"atelier","telephone":626044130,"email":"barthel_marie57@yahoo.fr","docsComplets":true,"velosLivres":0,"velosPlanifies":0},{"id":"cmoa7mavu01s1b2g2w2o56wrk","entreprise":"GROUPE ACCES VISION","contact":null,"apporteur":"Jordan","ville":"NEUILLY SUR SEINE","departement":92,"adresse":"11 Rue DE L'EGLISE","codePostal":92200,"lat":48.885436,"lng":2.263478,"nbVelos":23,"modeLivraison":"atelier","telephone":699252605,"email":"lelloucheanthony8@gmail.com","docsComplets":true,"velosLivres":0,"velosPlanifies":0},{"id":"cmoa7mape00zub2g22o3s91ee","entreprise":"GTH","contact":null,"apporteur":"Alain","ville":"BOUTIGNY","departement":77,"adresse":"1 Chemin DES CHAMPS FORTS","codePostal":77470,"lat":48.91771,"lng":2.914555,"nbVelos":10,"modeLivraison":"atelier","telephone":769969342,"email":"comptabilite@atoulok-tp.fr","docsComplets":true,"velosLivres":0,"velosPlanifies":0},{"id":"cmoa7maxf027zb2g2nipwec45","entreprise":"HAARP","contact":null,"apporteur":"Thierry Bismuth","ville":"CORMEILLES EN PARISIS","departement":95,"adresse":"Route STRATEGIQUE","codePostal":95240,"lat":48.981896,"lng":2.206542,"nbVelos":58,"modeLivraison":"atelier","telephone":748116415,"email":"dir.esatezanville@haarp.fr","docsComplets":false,"velosLivres":0,"velosPlanifies":0},{"id":"cmoa7mb4603vab2g2wp77sevc","entreprise":"HAL'DISTRIB 77","contact":null,"apporteur":"Yoann","ville":"ST THIBAULT DES VIGNES","departement":77,"adresse":"7 Rue DE LA MARNE","codePostal":77400,"lat":48.871784,"lng":2.672746,"nbVelos":2,"modeLivraison":"atelier","telephone":669380808,"email":"nabil.maksene@hotmail.fr","docsComplets":false,"velosLivres":0,"velosPlanifies":0},{"id":"cmoa7mb4403v7b2g254f0zlm0","entreprise":"HAL'DISTRIB 93","contact":null,"apporteur":"Yoann","ville":"VILLEPINTE","departement":93,"adresse":"1 Avenue GEORGES CLEMENCEAU","codePostal":93420,"lat":48.95993,"lng":2.556924,"nbVelos":2,"modeLivraison":"atelier","telephone":669380808,"email":"nabil.maksene@hotmail.fr","docsComplets":false,"velosLivres":0,"velosPlanifies":2},{"id":"cmoa7mb0k02tsb2g23x7bce80","entreprise":"HALLE MARKET","contact":null,"apporteur":"Yoann","ville":"FRESNES","departement":94,"adresse":"8 Avenue DE STALINGRAD","codePostal":94260,"lat":48.760448,"lng":2.332425,"nbVelos":35,"modeLivraison":"atelier","telephone":642435431,"email":"Nacer.idare@gmail.com","docsComplets":false,"velosLivres":0,"velosPlanifies":0},{"id":"cmoa7mavs01rzb2g2423lyqqc","entreprise":"HAUSSMANN GESTION PRIVEE","contact":null,"apporteur":"John","ville":"NOGENT SUR MARNE","departement":94,"adresse":"109 Boulevard DE STRASBOURG","codePostal":94130,"lat":48.841644,"lng":2.483118,"nbVelos":1,"modeLivraison":"atelier","telephone":671734852,"email":"noudot@haussmanngestionprivee.com","docsComplets":true,"velosLivres":0,"velosPlanifies":0},{"id":"cmoa7maq7013hb2g2wbkyyx9n","entreprise":"HD RENOV","contact":null,"apporteur":"Alain","ville":"PERONNE","departement":80,"adresse":"34 Rue SAINT FURSY","codePostal":80200,"lat":49.927831,"lng":2.932817,"nbVelos":5,"modeLivraison":"atelier","telephone":667884977,"email":"contact@hdrenov.fr","docsComplets":true,"velosLivres":0,"velosPlanifies":0},{"id":"cmoa7mb3903nxb2g23nvqj85x","entreprise":"HDH","contact":null,"apporteur":"Yoann","ville":"AUBERVILLIERS","departement":93,"adresse":"187 Avenue VICTOR HUGO","codePostal":93300,"lat":48.913436,"lng":2.38028,"nbVelos":6,"modeLivraison":"atelier","telephone":626630109,"email":"lolivier.dumontagne@gmail.com","docsComplets":true,"velosLivres":0,"velosPlanifies":0},{"id":"cmoa7mb2z03lgb2g23b3ohreu","entreprise":"HIVDA","contact":null,"apporteur":"Yoann","ville":"PANTIN","departement":93,"adresse":"153 Avenue JEAN LOLIVE","codePostal":93500,"lat":48.893542,"lng":2.413938,"nbVelos":6,"modeLivraison":"atelier","telephone":660989191,"email":"dostlarfrance@aol.fr","docsComplets":false,"velosLivres":0,"velosPlanifies":0},{"id":"cmoa7masq01fjb2g2g43vspu2","entreprise":"HOCINE PEINTURE","contact":null,"apporteur":"Antho","ville":"MONTPELLIER","departement":34,"adresse":"27 Rue BERTRAND DE BORN","codePostal":34080,"lat":43.640616,"lng":3.822599,"nbVelos":1,"modeLivraison":"atelier","telephone":612568950,"email":"hocinepeinture@gmail.com","docsComplets":false,"velosLivres":0,"velosPlanifies":0},{"id":"cmoa7mawy020ub2g2raeuv9i8","entreprise":"HOLDING GROUPE EL BELGHITI","contact":null,"apporteur":"Ramzi","ville":"SARCELLES","departement":95,"adresse":"4 Rue D’ABLEVAL","codePostal":95200,"lat":48.997533,"lng":2.393295,"nbVelos":10,"modeLivraison":"atelier","telephone":615669939,"email":"direction.n@atlasnegoce.com","docsComplets":false,"velosLivres":0,"velosPlanifies":0},{"id":"cmoa7may302h8b2g2zz0e8qd5","entreprise":"HOTEL LES LOGES BLANCHES SAS","contact":null,"apporteur":"Thierry Bismuth","ville":"MEGEVE","departement":74,"adresse":"500 Route DE LA PLAINE","codePostal":74120,"lat":45.863891,"lng":6.622015,"nbVelos":22,"modeLivraison":"atelier","telephone":622978727,"email":"direction@leslogesblanches-megeve.com","docsComplets":true,"velosLivres":0,"velosPlanifies":0},{"id":"cmoa7mayj02l3b2g2uljgt90b","entreprise":"IBERICA","contact":null,"apporteur":"Thierry Bismuth","ville":"STRASBOURG","departement":67,"adresse":"4 Rue DE L'ECURIE","codePostal":67000,"lat":48.579526,"lng":7.748873,"nbVelos":8,"modeLivraison":"atelier","telephone":615960369,"email":"contact@iberica.restaurant","docsComplets":false,"velosLivres":0,"velosPlanifies":0},{"id":"cmoa7mayd02jzb2g2w7nap24y","entreprise":"IDEPRO HABITAT","contact":null,"apporteur":"Thierry Bismuth","ville":"LONGVIC","departement":21,"adresse":"280 Rue CHARLES DE FREYCINET","codePostal":21600,"lat":47.269137,"lng":5.046375,"nbVelos":11,"modeLivraison":"atelier","telephone":643866234,"email":"joffrey.malaclet@idepro-habitat.fr","docsComplets":false,"velosLivres":0,"velosPlanifies":0},{"id":"cmoa7mawl01ycb2g2yp8nyqg4","entreprise":"IDF EVENEMENTS","contact":null,"apporteur":"Paul","ville":"PARIS 17","departement":75,"adresse":"9 Rue ANATOLE DE LA FORGE","codePostal":75017,"lat":48.876207,"lng":2.292177,"nbVelos":9,"modeLivraison":"atelier","telephone":650285071,"email":"axel@idf-evenements.com","docsComplets":false,"velosLivres":0,"velosPlanifies":0},{"id":"cmoa7maqw0165b2g269mf8d4p","entreprise":"IPPON CLUB AUBYGEOIS","contact":null,"apporteur":"Alain","ville":"AUBY","departement":59,"adresse":"RUE JEAN BAPTISTE LEBAS","codePostal":59950,"lat":50.417151,"lng":3.065943,"nbVelos":2,"modeLivraison":"atelier","telephone":608095728,"email":"Tal.cartoer@gmail.com","docsComplets":true,"velosLivres":0,"velosPlanifies":0},{"id":"cmoa7mavl01rhb2g20u050mku","entreprise":"ISOCLIM SUD","contact":null,"apporteur":"John","ville":"FONTVIEILLE","departement":13,"adresse":"13 Rue DES LILAS","codePostal":13990,"lat":43.718982,"lng":4.701354,"nbVelos":3,"modeLivraison":"atelier","telephone":761791205,"email":"isoclimsud@gmail.com","docsComplets":false,"velosLivres":0,"velosPlanifies":0},{"id":"cmoa7marh019cb2g20w44svvq","entreprise":"ITIC PARIS","contact":null,"apporteur":"Antho","ville":"PARIS 20","departement":75,"adresse":"190b Boulevard de Charonne","codePostal":75020,"lat":48.857929,"lng":2.392314,"nbVelos":20,"modeLivraison":"atelier","telephone":609472454,"email":"direction@iticparis.com","docsComplets":false,"velosLivres":0,"velosPlanifies":20},{"id":"cmoa7mati01gvb2g2o06ncf6v","entreprise":"JA CONSULTING","contact":null,"apporteur":"Antho","ville":"PARIS 01","departement":75,"adresse":"17 Rue MONTORGUEIL","codePostal":75001,"lat":48.863882,"lng":2.346408,"nbVelos":1,"modeLivraison":"atelier","telephone":785119323,"email":"alexandrehazan55@hotmail.fr","docsComplets":false,"velosLivres":0,"velosPlanifies":0},{"id":"cmoa7maqi014xb2g2cgjwtpnk","entreprise":"JARDIN LE POINT DU JOUR","contact":null,"apporteur":"Alain","ville":"VERDELOT","departement":77,"adresse":"LE POINT DU JOUR","codePostal":77510,"lat":48.890642,"lng":3.367994,"nbVelos":3,"modeLivraison":"atelier","telephone":603966093,"email":"jardinlepointdujour.77@gmail.com","docsComplets":true,"velosLivres":0,"velosPlanifies":0},{"id":"cmoa7mb4e03x9b2g2ei8x0fn3","entreprise":"JEMIL ORIENTAL","contact":null,"apporteur":"Yoann","ville":"PARIS 17","departement":75,"adresse":"119 Avenue DE SAINT-OUEN","codePostal":75017,"lat":48.895243,"lng":2.328009,"nbVelos":1,"modeLivraison":"atelier","telephone":625142882,"email":"emiloriental@gmail.com","docsComplets":false,"velosLivres":0,"velosPlanifies":0},{"id":"cmoa7masz01fzb2g21v87c9w8","entreprise":"JGNERGIE CONSULTING","contact":null,"apporteur":"Antho","ville":"LEVALLOIS PERRET","departement":92,"adresse":"10 Rue de Villiers","codePostal":92300,"lat":48.88757,"lng":2.282615,"nbVelos":1,"modeLivraison":"atelier","telephone":625610016,"email":"consultingjgnergie@gmail.com","docsComplets":false,"velosLivres":0,"velosPlanifies":1},{"id":"cmoa7mb0002pdb2g2fdcn15tx","entreprise":"JM DEVELOPPEMENT","contact":null,"apporteur":"Thierry Bismuth","ville":"SALLELES D AUDE","departement":11,"adresse":"13 Rue DE L’AUBIER","codePostal":11590,"lat":43.264568,"lng":2.946279,"nbVelos":1,"modeLivraison":"atelier","telephone":652938158,"email":"jerome@jm-developpement.com","docsComplets":false,"velosLivres":0,"velosPlanifies":0},{"id":"cmoa7mb4u03ywb2g2euddpvqr","entreprise":"JOHN DALIA","contact":null,"apporteur":"#N/A","ville":"PARIS 07","departement":75,"adresse":"11 B Rue DE LA PLANCHE","codePostal":75007,"lat":48.852571,"lng":2.325159,"nbVelos":4,"modeLivraison":"atelier","telephone":621383613,"email":"comptabilite@johndalia.com","docsComplets":false,"velosLivres":0,"velosPlanifies":0},{"id":"cmoa7mavi01r2b2g27compz7a","entreprise":"JOHN PAUL DISCOUNT OPTIQUE","contact":null,"apporteur":"John","ville":"PARIS 10","departement":75,"adresse":"159 Rue LA FAYETTE","codePostal":75010,"lat":48.879625,"lng":2.357841,"nbVelos":4,"modeLivraison":"atelier","telephone":762532727,"email":"johnpauloptique@gmail.com","docsComplets":true,"velosLivres":0,"velosPlanifies":4},{"id":"cmoa7matt01hfb2g2tih1hldp","entreprise":"JOHNSON SERVICE NOUZIERES","contact":null,"apporteur":"Antho","ville":"VIVONNE","departement":86,"adresse":"7 Rue DES CHAMPS ROUGES","codePostal":86370,"lat":46.382721,"lng":0.230508,"nbVelos":1,"modeLivraison":"atelier","telephone":643288056,"email":"johnson.roux@gmail.com","docsComplets":false,"velosLivres":0,"velosPlanifies":0},{"id":"cmoa7mat301g7b2g2xw3ahi5d","entreprise":"JUNOY","contact":null,"apporteur":"Antho","ville":"PARIS 17","departement":75,"adresse":"9 Rue PIERRE DEMOURS","codePostal":75017,"lat":48.88008,"lng":2.29192,"nbVelos":1,"modeLivraison":"atelier","telephone":619873723,"email":"cazoulay.junoy@gmail.com","docsComplets":false,"velosLivres":0,"velosPlanifies":0},{"id":"cmoa7mawf01wwb2g2yn6yxtcq","entreprise":"K & M","contact":null,"apporteur":"PAS DANS KORP","ville":"ST PAVACE","departement":72,"adresse":"5 B Rue DES POMMIERS","codePostal":72190,"lat":48.036121,"lng":0.187913,"nbVelos":1,"modeLivraison":"atelier","telephone":662852006,"email":"submc72@gmail.com","docsComplets":false,"velosLivres":0,"velosPlanifies":0},{"id":"cmoa7mb210389b2g2prqezcae","entreprise":"L'AFRICA PARIS","contact":null,"apporteur":"Yoann","ville":"EPINAY SUR SEINE","departement":93,"adresse":"137 Route DE SAINT-LEU","codePostal":93800,"lat":48.953376,"lng":2.336138,"nbVelos":128,"modeLivraison":"atelier","telephone":677682272,"email":"fjpr@supergel.fr","docsComplets":false,"velosLivres":0,"velosPlanifies":0},{"id":"cmoa7mb2803bub2g2zkrgb2fu","entreprise":"L'AFRICA PARIS","contact":null,"apporteur":"Yoann","ville":"EPINAY SUR SEINE","departement":93,"adresse":"25 Avenue SALVADOR ALLENDE","codePostal":93800,"lat":48.95629,"lng":2.308779,"nbVelos":102,"modeLivraison":"atelier","telephone":677682272,"email":"fjpr@supergel.fr","docsComplets":false,"velosLivres":0,"velosPlanifies":0},{"id":"cmoa7mb2l03fqb2g2g8eltmu6","entreprise":"L'AFRICA PARIS","contact":null,"apporteur":"Yoann","ville":"LE BOURGET","departement":93,"adresse":"48 Avenue DE LA DIVISION LECLERC","codePostal":93350,"lat":48.934022,"lng":2.425286,"nbVelos":94,"modeLivraison":"atelier","telephone":677682272,"email":"fjpr@supergel.fr","docsComplets":false,"velosLivres":0,"velosPlanifies":0},{"id":"cmoa7mb2t03itb2g24yjhis88","entreprise":"L'AFRICA PARIS","contact":null,"apporteur":"Yoann","ville":"AUBERVILLIERS","departement":93,"adresse":"17 Avenue JEAN JAURES","codePostal":93300,"lat":48.902055,"lng":2.390057,"nbVelos":86,"modeLivraison":"atelier","telephone":677682272,"email":"fjpr@supergel.fr","docsComplets":false,"velosLivres":0,"velosPlanifies":0},{"id":"cmoa7mb3303m1b2g2blzklgq2","entreprise":"L'AFRICA PARIS","contact":null,"apporteur":"Yoann","ville":"PARIS 18","departement":75,"adresse":"113 Rue DE CLIGNANCOURT","codePostal":75018,"lat":48.892248,"lng":2.348743,"nbVelos":60,"modeLivraison":"atelier","telephone":677682272,"email":"fjpr@supergel.fr","docsComplets":false,"velosLivres":0,"velosPlanifies":0},{"id":"cmoa7mb3j03qbb2g2cv9suf9p","entreprise":"L'AFRICA PARIS","contact":null,"apporteur":"Yoann","ville":"PARIS 15","departement":75,"adresse":"123 Rue FALGUIERE","codePostal":75015,"lat":48.83739,"lng":2.311039,"nbVelos":52,"modeLivraison":"atelier","telephone":677682272,"email":"fjpr@supergel.fr","docsComplets":false,"velosLivres":0,"velosPlanifies":0},{"id":"cmoa7mb3n03rsb2g2pg0oet82","entreprise":"L'AFRICA PARIS","contact":null,"apporteur":"Yoann","ville":"PARIS 18","departement":75,"adresse":"23 Rue DES POISSONNIERS","codePostal":75018,"lat":48.887304,"lng":2.350973,"nbVelos":45,"modeLivraison":"atelier","telephone":677682272,"email":"fjpr@supergel.fr","docsComplets":false,"velosLivres":0,"velosPlanifies":25},{"id":"cmoa7mb3z03tzb2g2pec5bv6g","entreprise":"L'AFRICA PARIS","contact":null,"apporteur":"Yoann","ville":"PARIS 18","departement":75,"adresse":"80 Rue DOUDEAUVILLE","codePostal":75018,"lat":48.88837,"lng":2.351054,"nbVelos":37,"modeLivraison":"atelier","telephone":677682272,"email":"fjpr@supergel.fr","docsComplets":false,"velosLivres":0,"velosPlanifies":0},{"id":"cmoa7mb4a03wdb2g2fcquyyu1","entreprise":"L'AFRICA PARIS","contact":null,"apporteur":"Yoann","ville":"PARIS 20","departement":75,"adresse":"86 Rue SAINT-BLAISE","codePostal":75020,"lat":48.856515,"lng":2.409332,"nbVelos":29,"modeLivraison":"atelier","telephone":677682272,"email":"fjpr@supergel.fr","docsComplets":false,"velosLivres":0,"velosPlanifies":0},{"id":"cmoa7mb4k03xjb2g2q1erj91v","entreprise":"L'AFRICA PARIS","contact":null,"apporteur":"Yoann","ville":"PARIS 18","departement":75,"adresse":"26 Rue DES POISSONNIERS","codePostal":75018,"lat":48.887438,"lng":2.351229,"nbVelos":11,"modeLivraison":"atelier","telephone":677682272,"email":"fjpr@supergel.fr","docsComplets":false,"velosLivres":0,"velosPlanifies":0},{"id":"cmoa7mazk02okb2g2gpzs6mp8","entreprise":"L'HAIR NOUVEAU","contact":null,"apporteur":"Thierry Bismuth","ville":"AURIAC","departement":64,"adresse":"10 Lotissement BORDENAVE","codePostal":64450,"lat":43.464719,"lng":-0.328441,"nbVelos":2,"modeLivraison":"atelier","telephone":618112104,"email":"fabiennejouguet@gmail.com","docsComplets":false,"velosLivres":0,"velosPlanifies":0},{"id":"cmoa7mb1o035cb2g2b2aizo0c","entreprise":"L-B-TRADING","contact":null,"apporteur":"Yoann","ville":"PANTIN","departement":93,"adresse":"160 Avenue JEAN JAURES","codePostal":93500,"lat":48.908703,"lng":2.397837,"nbVelos":12,"modeLivraison":"atelier","telephone":618530611,"email":"ninabazarvoltaire@orange.fr","docsComplets":false,"velosLivres":0,"velosPlanifies":0},{"id":"cmoa7maq5013bb2g22r688jyg","entreprise":"L.C OPTIC","contact":null,"apporteur":"Alain","ville":"PARIS 14","departement":75,"adresse":"69 Rue DU MONTPARNASSE","codePostal":75014,"lat":48.841595,"lng":2.325264,"nbVelos":5,"modeLivraison":"atelier","telephone":698020282,"email":"laurentcherqui@hotmail.com","docsComplets":false,"velosLivres":0,"velosPlanifies":0},{"id":"cmoa7maw501u9b2g212hoodqn","entreprise":"LA BOTTEGA PASTAVINO ATELIERLA BOTTEGA PASTAVINO ATELIER","contact":null,"apporteur":"Oscar","ville":"PARIS 02","departement":75,"adresse":"5 Rue D'ABOUKIR","codePostal":75002,"lat":48.866131,"lng":2.34203,"nbVelos":30,"modeLivraison":"atelier","telephone":688846353,"email":"alex.degli@gmail.com","docsComplets":false,"velosLivres":0,"velosPlanifies":30},{"id":"cmoa7mb0802prb2g2w1y3fqoc","entreprise":"LA GESTION DES PROPRIETES","contact":null,"apporteur":"Thierry Bismuth","ville":"DOMONT","departement":95,"adresse":"26 Rue DE L'INDEPENDANCE","codePostal":95330,"lat":49.027696,"lng":2.337115,"nbVelos":1,"modeLivraison":"atelier","telephone":782013661,"email":"lagestiondesproprietes@gmail.com","docsComplets":false,"velosLivres":0,"velosPlanifies":0},{"id":"cmoa7mayt02mib2g2hsecomwr","entreprise":"LA PAILLOTTE","contact":null,"apporteur":"Thierry Bismuth","ville":"VIVONNE","departement":86,"adresse":"53  GRAND RUE","codePostal":86370,"lat":46.426912,"lng":0.261727,"nbVelos":4,"modeLivraison":"atelier","telephone":605182123,"email":"sandrine.geay@orange.fr","docsComplets":true,"velosLivres":0,"velosPlanifies":0},{"id":"cmoa7mb4s03ylb2g29jxalbnn","entreprise":"LA PANADERIA","contact":null,"apporteur":"#N/A","ville":"PARIS 15","departement":75,"adresse":"32 Rue DE DANTZIG","codePostal":75015,"lat":48.833653,"lng":2.298728,"nbVelos":5,"modeLivraison":"atelier","telephone":646222901,"email":"delal.ch@icloud.com","docsComplets":false,"velosLivres":0,"velosPlanifies":0},{"id":"cmoa7mawq01yxb2g2bmpmf3g8","entreprise":"LABED DIFFUSION EM","contact":null,"apporteur":"Ramzi","ville":"LISSES","departement":91,"adresse":"2 Rue DES MALINES","codePostal":91090,"lat":48.603258,"lng":2.420329,"nbVelos":12,"modeLivraison":"atelier","telephone":662490923,"email":"dsirection@em91.fr","docsComplets":false,"velosLivres":0,"velosPlanifies":0},{"id":"cmoa7mayq02m6b2g2m219vbek","entreprise":"LAMAFLY","contact":null,"apporteur":"Thierry Bismuth","ville":"VIVONNE","departement":86,"adresse":"35  GRAND RUE","codePostal":86370,"lat":46.426489,"lng":0.261198,"nbVelos":5,"modeLivraison":"atelier","telephone":682593293,"email":"leravaillacs@gmail.com","docsComplets":true,"velosLivres":0,"velosPlanifies":0},{"id":"cmoa7maue01kbb2g27ifcil7j","entreprise":"LCMH","contact":null,"apporteur":"John","ville":"BEAUNE","departement":21,"adresse":"3 Rue DU MOULIN NOIZE","codePostal":21200,"lat":47.010978,"lng":4.847372,"nbVelos":40,"modeLivraison":"atelier","telephone":633079507,"email":"Tatiana@mandohospitality.com","docsComplets":false,"velosLivres":0,"velosPlanifies":0},{"id":"cmoa7mas001djb2g2o4ijerfp","entreprise":"LE CONFIDENTIEL CHAMPS ELYSEES","contact":null,"apporteur":"Antho","ville":"PARIS 08","departement":75,"adresse":"6 Rue ROBERT ESTIENNE","codePostal":75008,"lat":48.868667,"lng":2.305,"nbVelos":6,"modeLivraison":"atelier","telephone":625138740,"email":"karimhaddach@hotmail.com","docsComplets":false,"velosLivres":0,"velosPlanifies":0},{"id":"cmoa7mavz01t9b2g2zpb6n78k","entreprise":"LE DIAMANT JAUNE","contact":null,"apporteur":"Jordan","ville":"PARIS 04","departement":75,"adresse":"27 Rue DES ROSIERS","codePostal":75004,"lat":48.857654,"lng":2.358377,"nbVelos":7,"modeLivraison":"atelier","telephone":664543405,"email":"kevinmsihid@outlook.fr","docsComplets":false,"velosLivres":0,"velosPlanifies":7},{"id":"cmoa7mapa00z6b2g268vhj4dv","entreprise":"LE PETIT SALON DE METAL","contact":null,"apporteur":"Alain","ville":"BENONCES","departement":1,"adresse":"400 Rue PRINCIPALE","codePostal":1470,"lat":45.827715,"lng":5.475169,"nbVelos":11,"modeLivraison":"atelier","telephone":659178766,"email":"clapsonofmine@le-petit-salon-de-metal.com","docsComplets":false,"velosLivres":0,"velosPlanifies":0},{"id":"cmoa7maz702nob2g2gd8w86fo","entreprise":"LE PIPEC","contact":null,"apporteur":"Thierry Bismuth","ville":"CAUDAN","departement":56,"adresse":"3  TRESCOUEDIC","codePostal":56850,"lat":47.829176,"lng":-3.300778,"nbVelos":3,"modeLivraison":"atelier","telephone":666358040,"email":"etslepipec@gmail.com","docsComplets":false,"velosLivres":0,"velosPlanifies":0},{"id":"cmoa7maw301trb2g2mmtqy7tl","entreprise":"LE PLESSIS OPTIC","contact":null,"apporteur":"Jordan","ville":"LE PLESSIS ROBINSON","departement":92,"adresse":"70 Avenue CHARLES DE GAULLE","codePostal":92350,"lat":48.777292,"lng":2.257761,"nbVelos":3,"modeLivraison":"atelier","telephone":666382138,"email":"lopticien.plessis@gmail.com","docsComplets":true,"velosLivres":0,"velosPlanifies":0},{"id":"cmoa7mayw02msb2g205cztmu7","entreprise":"LE SEMARD","contact":null,"apporteur":"Thierry Bismuth","ville":"VENISSIEUX","departement":69,"adresse":"21 Avenue PIERRE SEMARD","codePostal":69200,"lat":45.706504,"lng":4.877798,"nbVelos":4,"modeLivraison":"atelier","telephone":613814068,"email":"cafedesarts69200@free.fr","docsComplets":true,"velosLivres":0,"velosPlanifies":0},{"id":"cmoa7mb3q03t2b2g2wptjur35","entreprise":"LES ARTISANS VERTS","contact":null,"apporteur":"Yoann","ville":"COURBEVOIE","departement":92,"adresse":"6 Passage EUGENE BARBIER","codePostal":92400,"lat":48.902146,"lng":2.242442,"nbVelos":25,"modeLivraison":"atelier","telephone":650778838,"email":"yoann@artisansverts.energy","docsComplets":false,"velosLivres":0,"velosPlanifies":3},{"id":"cmoa7mb4q03y5b2g2ezpm9xy6","entreprise":"LES GAULOIS","contact":null,"apporteur":"#N/A","ville":"THIAIS","departement":94,"adresse":"51 Rue HELENE MULLER","codePostal":94320,"lat":48.75871,"lng":2.396827,"nbVelos":9,"modeLivraison":"atelier","telephone":660757989,"email":"contact@boulangerielesgaulois.fr","docsComplets":false,"velosLivres":0,"velosPlanifies":0},{"id":"cmoa7mawb01w4b2g21umzqi5b","entreprise":"LES GAULOIS SAINT MAUR ADAMVILLE","contact":null,"apporteur":"Oscar","ville":"ST MAUR DES FOSSES","departement":94,"adresse":"14 Rue BARATTE CHOLET","codePostal":94100,"lat":48.796923,"lng":2.485769,"nbVelos":9,"modeLivraison":"atelier","telephone":660757989,"email":"contact@boulangerielesgaulois.fr","docsComplets":false,"velosLivres":0,"velosPlanifies":0},{"id":"cmoa7mawa01vub2g2ddfli7fa","entreprise":"LES GAULOIS SAINT MAUR FACULTES","contact":null,"apporteur":"Oscar","ville":"THIAIS","departement":94,"adresse":"51 Rue HELENE MULLER","codePostal":94320,"lat":48.75871,"lng":2.396827,"nbVelos":9,"modeLivraison":"atelier","telephone":660757989,"email":"contact@boulangerielesgaulois.fr","docsComplets":false,"velosLivres":0,"velosPlanifies":0},{"id":"cmoa7matn01h5b2g2gjutzlxr","entreprise":"LES JARDINS DU PANTHEON","contact":null,"apporteur":"Antho","ville":"PARIS 05","departement":75,"adresse":"200 Rue SAINT-JACQUES","codePostal":75005,"lat":48.84579,"lng":2.342651,"nbVelos":1,"modeLivraison":"atelier","telephone":646777297,"email":"veroniqueelyounsi @yahoo.fr","docsComplets":false,"velosLivres":0,"velosPlanifies":1},{"id":"cmoa7mb0a02pxb2g2ctpakyey","entreprise":"LES MILLE ET UNE FEUILLES","contact":null,"apporteur":"Yoann","ville":"GONESSE","departement":95,"adresse":"Chemin DE DUGNY","codePostal":95500,"lat":48.995133,"lng":2.457676,"nbVelos":48,"modeLivraison":"atelier","telephone":668545526,"email":"dan.bellaiche@les1001feuilles.com","docsComplets":false,"velosLivres":0,"velosPlanifies":0},{"id":"cmoa7mb3v03tmb2g2glsgr9s5","entreprise":"LES VERGERS DE VILLENEUVE","contact":null,"apporteur":"Yoann","ville":"VILLENEUVE LA GARENNE","departement":92,"adresse":"213 Boulevard GALLIENI","codePostal":92390,"lat":48.934473,"lng":2.332707,"nbVelos":4,"modeLivraison":"atelier","telephone":665051919,"email":"wimi93@yahoo.fr","docsComplets":false,"velosLivres":0,"velosPlanifies":0},{"id":"cmoa7maqs015wb2g244mxxkxm","entreprise":"LILLE AUTO PIECES","contact":null,"apporteur":"Alain","ville":"FACHES THUMESNIL","departement":59,"adresse":"155 Route d'Arras","codePostal":59155,"lat":50.606579,"lng":3.058952,"nbVelos":2,"modeLivraison":"atelier","telephone":667946000,"email":"abdel2680@hotmail.fr","docsComplets":false,"velosLivres":0,"velosPlanifies":0},{"id":"cmoa7mat101g3b2g2hkxfhr8v","entreprise":"LIMER JENNIFER","contact":null,"apporteur":"Antho","ville":"CHARENTON LE PONT","departement":94,"adresse":"11 Rue Jean Pigeon","codePostal":94220,"lat":48.822269,"lng":2.408245,"nbVelos":1,"modeLivraison":"atelier","telephone":611297334,"email":"jennifer_limer@hotmail.fr","docsComplets":false,"velosLivres":0,"velosPlanifies":0},{"id":"cmoa7mb0h02snb2g2l96uner9","entreprise":"LITTORAL NETTOYAGE","contact":null,"apporteur":"Yoann","ville":"SETE","departement":34,"adresse":"1064 Avenue DES EAUX BLANCHES","codePostal":34200,"lat":43.419306,"lng":3.713081,"nbVelos":40,"modeLivraison":"atelier","telephone":764252457,"email":"m.ghrib@littoral-nettoyage.com","docsComplets":false,"velosLivres":0,"velosPlanifies":0},{"id":"cmoa7maxj029mb2g20r3d9epe","entreprise":"LOCATEX","contact":null,"apporteur":"Thierry Bismuth","ville":"GOND PONTOUVRE","departement":16,"adresse":"LA VALENCEAUDE","codePostal":16160,"lat":45.665789,"lng":0.177454,"nbVelos":44,"modeLivraison":"atelier","telephone":631967342,"email":"eric.gentreau@locatexsas.fr","docsComplets":false,"velosLivres":0,"velosPlanifies":0},{"id":"cmoa7maxw02fhb2g2crvo0j9z","entreprise":"LOCATEX","contact":null,"apporteur":"Thierry Bismuth","ville":"BLANQUEFORT","departement":33,"adresse":"40 A Rue JEAN DUVERT","codePostal":33290,"lat":44.9191,"lng":-0.622441,"nbVelos":21,"modeLivraison":"atelier","telephone":631967342,"email":"eric.gentreau@locatexsas.fr","docsComplets":true,"velosLivres":0,"velosPlanifies":0},{"id":"cmoa7manc00btb2g2upz87m5m","entreprise":"LOGISIMA","contact":null,"apporteur":"Alain","ville":"SIN LE NOBLE","departement":59,"adresse":"Rue FERRER","codePostal":59450,"lat":50.364785,"lng":3.12409,"nbVelos":381,"modeLivraison":"atelier","telephone":608933915,"email":"tsautiere@simastock.fr","docsComplets":false,"velosLivres":0,"velosPlanifies":0},{"id":"cmoa7mb1z037zb2g2y0ayx8jy","entreprise":"LOGNIB FOOD","contact":null,"apporteur":"Yoann","ville":"DOMONT","departement":95,"adresse":"9 Rue PIERRE EMMANUEL","codePostal":95330,"lat":49.025058,"lng":2.346699,"nbVelos":9,"modeLivraison":"atelier","telephone":768058653,"email":"contact.firatfood@dasty-france.com","docsComplets":true,"velosLivres":0,"velosPlanifies":9},{"id":"cmoa7masj01f9b2g2qeol6st1","entreprise":"LOURIMI HADILI","contact":null,"apporteur":"Antho","ville":"LE BLANC MESNIL","departement":93,"adresse":"3 Rue DU DOCTEUR ALBERT CALMETTE","codePostal":93150,"lat":48.94033,"lng":2.473456,"nbVelos":1,"modeLivraison":"atelier","telephone":635274640,"email":"lourimi.hadili@gmail.com","docsComplets":false,"velosLivres":0,"velosPlanifies":0},{"id":"cmoa7mazl02onb2g2ste4v4p8","entreprise":"LRJ","contact":null,"apporteur":"Thierry Bismuth","ville":"RENNES","departement":35,"adresse":"17 Rue DES DAMES","codePostal":35000,"lat":48.111135,"lng":-1.684188,"nbVelos":2,"modeLivraison":"atelier","telephone":671652660,"email":"laurent.tincq@lrj.group","docsComplets":false,"velosLivres":0,"velosPlanifies":0},{"id":"cmoa7mb130303b2g22rwegfiu","entreprise":"LUNA TRAITEUR","contact":null,"apporteur":"Yoann","ville":"CROSNE","departement":91,"adresse":"17 Rue DES INVESTISSEURS","codePostal":91560,"lat":48.725435,"lng":2.470346,"nbVelos":19,"modeLivraison":"atelier","telephone":615875384,"email":"luna22@wanadoo.fr","docsComplets":true,"velosLivres":0,"velosPlanifies":0},{"id":"cmoa7mazr02p1b2g2rug6ypc2","entreprise":"LYSERO","contact":null,"apporteur":"Thierry Bismuth","ville":"PARIS 14","departement":75,"adresse":"149 Avenue DU MAINE","codePostal":75014,"lat":48.833839,"lng":2.32468,"nbVelos":1,"modeLivraison":"atelier","telephone":634742143,"email":"contact@lysero.com","docsComplets":false,"velosLivres":0,"velosPlanifies":0},{"id":"cmoa7maq8013nb2g2nz9wm5ag","entreprise":"M N G A","contact":null,"apporteur":"Alain","ville":"CLERY EN VEXIN","departement":95,"adresse":"4 Grande rue DES TAVERNES","codePostal":95420,"lat":49.129973,"lng":1.841628,"nbVelos":5,"modeLivraison":"atelier","telephone":669616702,"email":"aubergedeclery@orange.fr","docsComplets":true,"velosLivres":0,"velosPlanifies":0},{"id":"cmoa7mb3w03trb2g2nzh3yewe","entreprise":"MA SOLUTION ENERGIE","contact":null,"apporteur":"Yoann","ville":"ROSNY SOUS BOIS","departement":93,"adresse":"101 Rue PHILIBERT HOFFMANN","codePostal":93110,"lat":48.884401,"lng":2.48858,"nbVelos":3,"modeLivraison":"atelier","telephone":669480258,"email":"m.hassouna@ma-solution-energie.fr","docsComplets":false,"velosLivres":0,"velosPlanifies":0},{"id":"cmoa7masw01ftb2g2g77xljj6","entreprise":"MAIZA HYGIENE","contact":null,"apporteur":"Antho","ville":"ST OUEN","departement":93,"adresse":"23 Avenue GABRIEL PERI","codePostal":93400,"lat":48.909993,"lng":2.333331,"nbVelos":1,"modeLivraison":"atelier","telephone":616253101,"email":"contact@maiza-hygiene.fr","docsComplets":true,"velosLivres":0,"velosPlanifies":0},{"id":"cmoa7mb4j03xhb2g2o16wii0g","entreprise":"MANADVISE","contact":null,"apporteur":"Yoann","ville":"ASNIERES SUR SEINE","departement":92,"adresse":"39 Rue PIERRE BROSSOLETTE","codePostal":92600,"lat":48.911605,"lng":2.293967,"nbVelos":1,"modeLivraison":"atelier","telephone":664263396,"email":"benjamin@mana.fr","docsComplets":false,"velosLivres":0,"velosPlanifies":0},{"id":"cmoa7mb4w03z4b2g2x0sdxjy8","entreprise":"MANI UNIVERS","contact":null,"apporteur":"#N/A","ville":"PARIS 20","departement":75,"adresse":"107 Rue DES COURONNES","codePostal":75020,"lat":48.872593,"lng":2.389276,"nbVelos":1,"modeLivraison":"atelier","telephone":789085350,"email":"margaux.harinthe@gmail.com","docsComplets":false,"velosLivres":0,"velosPlanifies":0},{"id":"cmoa7mb1s036fb2g2qz1hpdv3","entreprise":"MARCHE IST ARNOUVILLE","contact":null,"apporteur":"Yoann","ville":"ARNOUVILLE LES GONESSE","departement":95,"adresse":"109-111 Rue Jean Jaurès","codePostal":95400,"lat":48.988932,"lng":2.418799,"nbVelos":11,"modeLivraison":"atelier","telephone":768058653,"email":"contact.firatfood@dasty-france.com","docsComplets":true,"velosLivres":0,"velosPlanifies":11},{"id":"cmoa7mb0u02xlb2g2xsewwziy","entreprise":"MARCHE IST CLAYE","contact":null,"apporteur":"Yoann","ville":"CLAYE SOUILLY","departement":77,"adresse":"25 Rue ALEXANDRE CHATRIAN","codePostal":77410,"lat":48.947158,"lng":2.668602,"nbVelos":23,"modeLivraison":"atelier","telephone":768058653,"email":"contact.firatfood@dasty-france.com","docsComplets":true,"velosLivres":0,"velosPlanifies":23},{"id":"cmoa7mb0w02y9b2g2lrgu303n","entreprise":"MARCHE IST CRETEIL","contact":null,"apporteur":"Yoann","ville":"CRETEIL","departement":94,"adresse":"5 Rue DE LA BASSE QUINTE","codePostal":94000,"lat":48.774778,"lng":2.441498,"nbVelos":21,"modeLivraison":"atelier","telephone":768058653,"email":"contact.firatfood@dasty-france.com","docsComplets":true,"velosLivres":0,"velosPlanifies":21},{"id":"cmoa7mb1j0346b2g2fdk60qvy","entreprise":"MARCHE IST GRIGNY","contact":null,"apporteur":"Yoann","ville":"GRIGNY","departement":91,"adresse":"13 Rue FERDINAND DE LESSEPS","codePostal":91350,"lat":48.664984,"lng":2.399282,"nbVelos":14,"modeLivraison":"atelier","telephone":768058653,"email":"contact.firatfood@dasty-france.com","docsComplets":true,"velosLivres":0,"velosPlanifies":14},{"id":"cmoa7mb15030nb2g2wjaygz8e","entreprise":"MARCHE IST NOISY","contact":null,"apporteur":"Yoann","ville":"NOISY LE SEC","departement":93,"adresse":"150 Rue DE PARIS","codePostal":93130,"lat":48.902885,"lng":2.465945,"nbVelos":19,"modeLivraison":"atelier","telephone":768058653,"email":"contact.firatfood@dasty-france.com","docsComplets":true,"velosLivres":0,"velosPlanifies":19},{"id":"cmoa7mb2h03f8b2g2df7hs4rm","entreprise":"MARCHE IST PANTIN","contact":null,"apporteur":"Yoann","ville":"PANTIN","departement":93,"adresse":"103 Avenue JEAN LOLIVE","codePostal":93500,"lat":48.892534,"lng":2.409127,"nbVelos":8,"modeLivraison":"atelier","telephone":768058653,"email":"contact.firatfood@dasty-france.com","docsComplets":true,"velosLivres":0,"velosPlanifies":8},{"id":"cmoa7mb1e032sb2g2uay300j7","entreprise":"MARCHE IST SARCELLES","contact":null,"apporteur":"Yoann","ville":"SARCELLES","departement":95,"adresse":"4 Passage DE LA CORSE","codePostal":95200,"lat":48.978013,"lng":2.376491,"nbVelos":16,"modeLivraison":"atelier","telephone":768058653,"email":"contact.firatfood@dasty-france.com","docsComplets":true,"velosLivres":0,"velosPlanifies":16},{"id":"cmoa7mb0y02yvb2g2ctg2fagj","entreprise":"MARCHE IST VILLIERS","contact":null,"apporteur":"Yoann","ville":"VILLIERS LE BEL","departement":95,"adresse":"22 Avenue DES ENTREPRENEURS","codePostal":95400,"lat":48.9991,"lng":2.392696,"nbVelos":21,"modeLivraison":"atelier","telephone":768058653,"email":"contact.firatfood@dasty-france.com","docsComplets":true,"velosLivres":0,"velosPlanifies":21},{"id":"cmoa7maqz016gb2g20ssjxtuv","entreprise":"MARGA","contact":null,"apporteur":"Alain","ville":"GAGNY","departement":93,"adresse":"106 Avenue HENRI BARBUSSE","codePostal":93220,"lat":48.887901,"lng":2.524627,"nbVelos":1,"modeLivraison":"atelier","telephone":627143752,"email":"mathieu.camus@protonmail.com","docsComplets":false,"velosLivres":0,"velosPlanifies":0},{"id":"cmoa7mas201dxb2g2yrdqboas","entreprise":"MARGAUX LONNBERG","contact":null,"apporteur":"Antho","ville":"PARIS 02","departement":75,"adresse":"36 Rue DES JEUNEURS","codePostal":75002,"lat":48.869673,"lng":2.344331,"nbVelos":5,"modeLivraison":"atelier","telephone":650181623,"email":"warren@margauxlonnberg.com","docsComplets":false,"velosLivres":0,"velosPlanifies":5},{"id":"cmoa7masm01fbb2g2wwrxoqho","entreprise":"MD LUXURY","contact":null,"apporteur":"Antho","ville":"PARIS 08","departement":75,"adresse":"60 Rue FRANCOIS IER","codePostal":75008,"lat":48.869893,"lng":2.30194,"nbVelos":1,"modeLivraison":"atelier","telephone":618956552,"email":"dylanancinon@gmail.com","docsComplets":false,"velosLivres":0,"velosPlanifies":0},{"id":"cmoa7mapv011ub2g2xwlj94sf","entreprise":"MENET GILDAS","contact":null,"apporteur":"Alain","ville":"ETEL","departement":56,"adresse":"LE SACH","codePostal":56410,"lat":47.659581,"lng":-3.19706,"nbVelos":7,"modeLivraison":"atelier","telephone":607278116,"email":"fermedusach@yahoo.fr","docsComplets":true,"velosLivres":0,"velosPlanifies":0},{"id":"cmoa7mb2x03l8b2g27bod48wj","entreprise":"MERCURE","contact":null,"apporteur":"Yoann","ville":"VAUX LE PENIL","departement":77,"adresse":"567 Rue Foch","codePostal":77000,"lat":48.532539,"lng":2.684038,"nbVelos":7,"modeLivraison":"atelier","telephone":665920041,"email":"dpsmelun@gmail.com","docsComplets":true,"velosLivres":0,"velosPlanifies":0},{"id":"cmoa7mb1a031rb2g2s298njes","entreprise":"MIL FOODS COMPANY","contact":null,"apporteur":"Yoann","ville":"GONESSE","departement":95,"adresse":"Chemin DE DUGNY","codePostal":95500,"lat":48.995133,"lng":2.457676,"nbVelos":18,"modeLivraison":"atelier","telephone":698243007,"email":"kevin.bellaiche@milfoodscompany.com","docsComplets":false,"velosLivres":0,"velosPlanifies":18},{"id":"cmoa7mb1v0373b2g2a3pxro07","entreprise":"MILLENIUM","contact":null,"apporteur":"Yoann","ville":"GRIGNY","departement":91,"adresse":"20 Rue FERDINAND DE LESSEPS","codePostal":91350,"lat":48.66549,"lng":2.398742,"nbVelos":10,"modeLivraison":"atelier","telephone":768058653,"email":"contact.firatfood@dasty-france.com","docsComplets":false,"velosLivres":0,"velosPlanifies":10},{"id":"cmoa7mb2d03epb2g2ibnl67zv","entreprise":"MILLENIUM","contact":null,"apporteur":"Yoann","ville":"NOISY LE SEC","departement":93,"adresse":"2 Avenue BURGER","codePostal":93130,"lat":48.902919,"lng":2.46638,"nbVelos":9,"modeLivraison":"atelier","telephone":768058653,"email":"contact.firatfood@dasty-france.com","docsComplets":true,"velosLivres":0,"velosPlanifies":9},{"id":"cmoa7matb01ghb2g2f5ds46xt","entreprise":"MINE COMPAGNIE","contact":null,"apporteur":"Antho","ville":"NEUILLY SUR SEINE","departement":92,"adresse":"8 Rue Garnier","codePostal":92200,"lat":48.886092,"lng":2.260059,"nbVelos":1,"modeLivraison":"atelier","telephone":648107584,"email":"Ilan.elkaiam09@gmail.com","docsComplets":false,"velosLivres":0,"velosPlanifies":1},{"id":"cmoa7mb1p035pb2g2i41pam0j","entreprise":"MMT","contact":null,"apporteur":"Yoann","ville":"LA COURNEUVE","departement":93,"adresse":"22 Avenue PAUL VAILLANT COUTURIER","codePostal":93120,"lat":48.918961,"lng":2.408938,"nbVelos":12,"modeLivraison":"atelier","telephone":667242539,"email":"direction.mmt@outlook.com","docsComplets":false,"velosLivres":0,"velosPlanifies":0},{"id":"cmoa7marj019xb2g2uhjsgpxo","entreprise":"N2A","contact":null,"apporteur":"Antho","ville":"NEUILLY PLAISANCE","departement":93,"adresse":"22 Boulevard GALLIENI","codePostal":93360,"lat":48.852807,"lng":2.514202,"nbVelos":16,"modeLivraison":"atelier","telephone":650960917,"email":"nabil.dp@gmail.com","docsComplets":false,"velosLivres":0,"velosPlanifies":0},{"id":"cmoa7maps011eb2g2xrr7yqgt","entreprise":"NACELLES DU NORD","contact":null,"apporteur":"Alain","ville":"RONCHIN","departement":59,"adresse":"153 Rue ANATOLE FRANCE","codePostal":59790,"lat":50.611772,"lng":3.078694,"nbVelos":7,"modeLivraison":"atelier","telephone":689830283,"email":"contact@nacellesdunord.fr","docsComplets":true,"velosLivres":0,"velosPlanifies":0},{"id":"cmoa7maqy016bb2g2rw4qli2t","entreprise":"NANCYNELLA","contact":null,"apporteur":"Alain","ville":"COURCELLES CHAUSSY","departement":57,"adresse":"39 Allée DES TILLEULS","codePostal":57530,"lat":49.134791,"lng":6.396246,"nbVelos":2,"modeLivraison":"atelier","telephone":607765507,"email":"marineroda@gmail.com","docsComplets":false,"velosLivres":0,"velosPlanifies":0},{"id":"cmoa7mau601j6b2g281h4pmj6","entreprise":"NATS","contact":null,"apporteur":"Jerome","ville":"PARIS 19","departement":75,"adresse":"59 Rue PETIT","codePostal":75019,"lat":48.885732,"lng":2.386625,"nbVelos":7,"modeLivraison":"atelier","telephone":620209132,"email":"yorambozen@gmail.com","docsComplets":false,"velosLivres":0,"velosPlanifies":0},{"id":"cmoa7maqk0151b2g2eqw9nr7w","entreprise":"NCGF- NEGOCE COURTAGE GEORGES FAERBER","contact":null,"apporteur":"Alain","ville":"NOISY LE GRAND","departement":93,"adresse":"47 Rue DE L’UNIVERSITE","codePostal":93160,"lat":48.838042,"lng":2.559254,"nbVelos":3,"modeLivraison":"atelier","telephone":686101177,"email":"fredncgf@gmail.com","docsComplets":true,"velosLivres":0,"velosPlanifies":0},{"id":"cmoa7maz902nsb2g2ogjmh79u","entreprise":"NEOGEX","contact":null,"apporteur":"Thierry Bismuth","ville":"LA WANTZENAU","departement":67,"adresse":"9 Rue DE LA GARE","codePostal":67610,"lat":48.66294,"lng":7.823526,"nbVelos":3,"modeLivraison":"atelier","telephone":685182016,"email":"j.boehler@neogex.fr","docsComplets":false,"velosLivres":0,"velosPlanifies":0},{"id":"cmoa7mayl02lcb2g2zg4anbks","entreprise":"NEOH","contact":null,"apporteur":"Thierry Bismuth","ville":"QUIMPER","departement":29,"adresse":"2 Allée JEAN-FRANCOIS DE LA PEROUSE","codePostal":29000,"lat":47.979558,"lng":-4.024925,"nbVelos":8,"modeLivraison":"atelier","telephone":252569005,"email":"virginie.motreff@neoh.tech","docsComplets":false,"velosLivres":0,"velosPlanifies":0},{"id":"cmoa7mar90170b2g2pb82ij8r","entreprise":"NEW WAVE ACADEMY","contact":null,"apporteur":"Alain","ville":"RUEIL MALMAISON","departement":92,"adresse":"23 Rue MOLIERE","codePostal":92500,"lat":48.877606,"lng":2.188174,"nbVelos":1,"modeLivraison":"atelier","telephone":686158908,"email":"support@nwacademy.fr","docsComplets":true,"velosLivres":0,"velosPlanifies":0},{"id":"cmoa7maz502ngb2g2k84qfvna","entreprise":"NICO MOTO 86","contact":null,"apporteur":"Thierry Bismuth","ville":"VIVONNE","departement":86,"adresse":"14 Rue DE MAUPET","codePostal":86370,"lat":46.41673,"lng":0.245126,"nbVelos":3,"modeLivraison":"atelier","telephone":611017451,"email":"nicolastourancheau@outlook.fr","docsComplets":true,"velosLivres":0,"velosPlanifies":0},{"id":"cmoa7mazj02ohb2g2ao5b73bi","entreprise":"NIKOCAWA","contact":null,"apporteur":"Thierry Bismuth","ville":"VIVONNE","departement":86,"adresse":"CHAMP DU PONT DE MAUPET","codePostal":86370,"lat":46.41845,"lng":0.246635,"nbVelos":2,"modeLivraison":"atelier","telephone":611017451,"email":"nicolastourancheau@outlook.fr","docsComplets":false,"velosLivres":0,"velosPlanifies":0},{"id":"cmoa7may502hqb2g2gh2mr6n0","entreprise":"NIM'NET","contact":null,"apporteur":"Thierry Bismuth","ville":"NIMES","departement":30,"adresse":"32 Rue ROBERT MALLET STEVENS","codePostal":30900,"lat":43.812905,"lng":4.348725,"nbVelos":17,"modeLivraison":"atelier","telephone":621504841,"email":"aurore.canivet@nimnet.fr","docsComplets":false,"velosLivres":0,"velosPlanifies":0},{"id":"cmoa7mb2s03ilb2g27b8svb0o","entreprise":"NINA DESIGN","contact":null,"apporteur":"Yoann","ville":"PANTIN","departement":93,"adresse":"23 Avenue DU CIMETIERE PARISIEN","codePostal":93500,"lat":48.908809,"lng":2.398577,"nbVelos":7,"modeLivraison":"atelier","telephone":618530611,"email":"ninabazarvoltaire@orange.fr","docsComplets":false,"velosLivres":0,"velosPlanifies":0},{"id":"cmoa7mb1h033qb2g2fhd4iavy","entreprise":"NINA GROUPE VOLTAIRE","contact":null,"apporteur":"Yoann","ville":"ASNIERES SUR SEINE","departement":92,"adresse":"3 Boulevard VOLTAIRE","codePostal":92600,"lat":48.911189,"lng":2.297056,"nbVelos":15,"modeLivraison":"atelier","telephone":618530611,"email":"ninabazarvoltaire@orange.fr","docsComplets":false,"velosLivres":0,"velosPlanifies":0},{"id":"cmoa7mat001g1b2g2umv94hc6","entreprise":"NMA GROUP","contact":null,"apporteur":"Antho","ville":"PARIS 17","departement":75,"adresse":"18 Rue FORTUNY","codePostal":75017,"lat":48.882192,"lng":2.306726,"nbVelos":1,"modeLivraison":"atelier","telephone":698954477,"email":"mikael@nmagroup.fr","docsComplets":false,"velosLivres":0,"velosPlanifies":0},{"id":"cmoa7maw201tnb2g25y9ebx3l","entreprise":"NOTEZ-NOUS","contact":null,"apporteur":"Jordan","ville":"ST MAURICE","departement":94,"adresse":"2 Rue JEAN GABIN","codePostal":94410,"lat":48.81438,"lng":2.458663,"nbVelos":3,"modeLivraison":"atelier","telephone":601305039,"email":"direction@noteznous.fr","docsComplets":true,"velosLivres":0,"velosPlanifies":0},{"id":"cmoa7mawt01zlb2g2lt3mw32r","entreprise":"NOUVELLE ATLAS","contact":null,"apporteur":"Ramzi","ville":"CHOUE","departement":41,"adresse":"LA CREUSE","codePostal":41170,"lat":47.994713,"lng":0.924301,"nbVelos":17,"modeLivraison":"atelier","telephone":615669939,"email":"direction.n@atlasnegoce.com","docsComplets":false,"velosLivres":0,"velosPlanifies":0},{"id":"cmoa7maty01hub2g2dt2bl0ic","entreprise":"NOUVELLE GENERATION DE BELEDOUGOU","contact":null,"apporteur":"Dylan","ville":"GARGES LES GONESSE","departement":95,"adresse":"3 Place Germain Soufflot","codePostal":95140,"lat":48.971117,"lng":2.395861,"nbVelos":15,"modeLivraison":"atelier","telephone":628942015,"email":"","docsComplets":false,"velosLivres":0,"velosPlanifies":0},{"id":"cmoa7marr01bvb2g26fb87msh","entreprise":"NSB","contact":null,"apporteur":"Antho","ville":"VILLEMOMBLE","departement":93,"adresse":"1 Avenue LAGACHE","codePostal":93250,"lat":48.882631,"lng":2.524663,"nbVelos":10,"modeLivraison":"atelier","telephone":650960917,"email":"nabil.dp@gmail.com","docsComplets":false,"velosLivres":0,"velosPlanifies":0},{"id":"cmoa7mayh02kub2g2rr0ywrsa","entreprise":"O' SPORT ASSOCIATION","contact":null,"apporteur":"Thierry Bismuth","ville":"CONTREXEVILLE","departement":88,"adresse":"180 Rue DU HALICHARD","codePostal":88140,"lat":48.182573,"lng":5.904436,"nbVelos":8,"modeLivraison":"atelier","telephone":768702654,"email":"direction@osport-asso.com","docsComplets":false,"velosLivres":0,"velosPlanifies":0},{"id":"cmoa7mb0102pfb2g2o2hso467","entreprise":"ODYSSEE RH","contact":null,"apporteur":"Thierry Bismuth","ville":"PARIS 17","departement":75,"adresse":"15 Rue de Phalsbourg","codePostal":75017,"lat":48.882305,"lng":2.308861,"nbVelos":44,"modeLivraison":"atelier","telephone":610703090,"email":"thierry@odyssee-rh.fr","docsComplets":false,"velosLivres":0,"velosPlanifies":0},{"id":"cmoa7mazx02p9b2g2zoe33f9l","entreprise":"OFF ROAD MOTO","contact":null,"apporteur":"Thierry Bismuth","ville":"VIVONNE","departement":86,"adresse":"Pont CHAMPS DU PONT DE MAUPET","codePostal":86370,"lat":46.41845,"lng":0.246635,"nbVelos":1,"modeLivraison":"atelier","telephone":611017451,"email":"nicolastourancheau@outlook.fr","docsComplets":true,"velosLivres":0,"velosPlanifies":0},{"id":"cmoa7maxu02erb2g2gtexn689","entreprise":"OLONA","contact":null,"apporteur":"Thierry Bismuth","ville":"NICE","departement":6,"adresse":"38 B Boulevard VICTOR HUGO","codePostal":6000,"lat":43.698896,"lng":7.261845,"nbVelos":25,"modeLivraison":"atelier","telephone":674402354,"email":"direction@voyages-exception.fr","docsComplets":false,"velosLivres":0,"velosPlanifies":0},{"id":"cmoa7max6024gb2g2973kbbhy","entreprise":"OMNIUM SANTE HOLDING","contact":null,"apporteur":"sacha","ville":"ORMESSON SUR MARNE","departement":94,"adresse":"37 Rue du Docteur André Libert","codePostal":94490,"lat":48.789434,"lng":2.54341,"nbVelos":10,"modeLivraison":"atelier","telephone":613861140,"email":"Patrick.giunta@cds-sante.fr","docsComplets":false,"velosLivres":0,"velosPlanifies":0},{"id":"cmoa7mb2q03idb2g2266x8ivq","entreprise":"OPEN SOURCING","contact":null,"apporteur":"Yoann","ville":"PARIS 02","departement":75,"adresse":"12 Rue VIVIENNE","codePostal":75002,"lat":48.86763,"lng":2.339462,"nbVelos":16,"modeLivraison":"atelier","telephone":664192927,"email":"dan@opensourcing.com","docsComplets":true,"velosLivres":0,"velosPlanifies":7},{"id":"cmoa7masb01eub2g21ab8um77","entreprise":"OPTICAL.COM","contact":null,"apporteur":"Antho","ville":"PARIS 17","departement":75,"adresse":"72 Rue DE LEVIS","codePostal":75017,"lat":48.884304,"lng":2.312746,"nbVelos":2,"modeLivraison":"atelier","telephone":614713852,"email":"bsarfati9@gmail.com","docsComplets":false,"velosLivres":0,"velosPlanifies":0},